NAME,LOCALITY,GDA_LAT,GDA_LONG
207 MILE CAMP,Place Name,-22.78759,119.62749
45 MILE OUTCAMP,Place Name,-29.35637,120.52664
6 MILE GAP,Place Name,-17.90611,126.43392
9 ACRE ROCK,Place Name,-32.39684,117.11745
913 MILE,Place Name,-31.00729,124.65403
ABBOTTS TRIG HILL,Mountain / Peak / Hill,-26.31657,118.40835
ABEDNEGNO HILL,Mountain / Peak / Hill,-28.77461,121.81298
ABERNYTE,Homestead,-35.03385,117.53501
ABNEY HILL,Mountain / Peak / Hill,-15.73261,128.75167
ABRAKURRIE CAVE,Place Name,-31.6572,128.4898
ABYDOS,Place Name,-21.4103,118.92909
ABYDOS SIDING,Place Name,-21.42616,118.92543
ABYSSINIA ROCK,Place Name,-32.23626,116.29279
ACTON PARK,Place Name,-33.76812,115.38101
ADAM RANGE,Place Name,-28.36433,122.61432
ADAM ROCK,Place Name,-33.06272,117.55741
ADCOCK GORGE,Gorge,-16.92587,125.77882
ADDINGTON,Place Name,-32.06316,116.83915
ADIEU POINT,Cape / Headland / Point,-15.24617,124.57086
ADMIRAL BAY,Bay / Inlet / Cove,-18.76528,121.6372
ADMIRAL HILL,Mountain / Peak / Hill,-28.55843,122.47491
ADMIRALTY GULF,Bay / Inlet / Cove,-14.16455,126.03569
ADMIRALTY GULF,Place Name,-14.27064,125.8863
ADOLPHUS ISLAND,Waterbody Island,-15.1207,128.15113
AFGHAN CAMP,Place Name,-17.13611,126.44737
AFGHAN ROCK,Place Name,-27.13078,117.72285
AGNEW,Place Name,-28.01088,120.51616
AGNEW BLUFF,Mountain / Peak / Hill,-28.02696,120.53518
AGNEW POINT,Cape / Headland / Point,-15.06379,128.10145
AGRIPPA RIDGE,Place Name,-21.31836,119.28773
AINSLIE GORGE,Gorge,-26.24084,126.66427
AINSLIE HILL,Mountain / Peak / Hill,-26.19352,126.69746
AIREY HILL,Mountain / Peak / Hill,-23.05751,113.86445
AJANA,Place Name,-27.94972,114.63945
ALBANY,Populated Place,-35.0031,117.86595
ALBERT EDWARD RANGE,Place Name,-18.27472,127.98251
ALBERT ISLANDS,Place Name,-14.51815,124.89975
ALBION DOWNS,Homestead,-27.28967,120.39336
ALBION DOWNS WATER BASIN,Place Name,-27.65665,120.47271
ALCOA,Place Name,-32.18236,115.7755
ALDERSYDE,Place Name,-32.37308,117.28099
ALDRIDGE COVE,Bay / Inlet / Cove,-35.04982,116.64655
ALEC ROSS RANGE,Place Name,-22.02526,128.75252
ALEXANDER BAY,Bay / Inlet / Cove,-33.88309,122.76929
ALEXANDER HILL,Mountain / Peak / Hill,-33.88587,122.85161
ALEXANDER ISLAND,Waterbody Island,-33.3111,115.70232
ALEXANDER ISLAND,Waterbody Island,-18.39758,125.34778
ALEXANDER POINT,Cape / Headland / Point,-33.90799,122.83004
ALFRED AND MARIE RANGE,Place Name,-24.78148,125.88181
ALICE DOWNS,Homestead,-17.75653,127.93936
ALICE HILL,Mountain / Peak / Hill,-17.90124,127.82032
ALICE HILL,Mountain / Peak / Hill,-15.0259,128.48455
ALINJARRA,Place Name,-31.83414,115.87704
ALISON POINT,Cape / Headland / Point,-23.49378,113.76851
ALKIMOS,Place Name,-31.60811,115.67484
ALLANSON,Populated Place,-33.33588,116.0994
ALLEN SIDING,Place Name,-20.376,118.77337
ALLIGATOR HILL,Mountain / Peak / Hill,-18.26206,125.53456
ALMA ISLAND,Waterbody Island,-23.94598,115.78867
ALMA OUTCAMP,Place Name,-23.78055,115.82823
ALOA DOWNS,Homestead,-33.28344,121.49463
ALTONA,Homestead,-27.53886,119.98576
ALUMINA JUNCTION,Place Name,-32.64518,115.8885
AMAROO,Homestead,-33.14026,119.71394
AMAROO THORN,Homestead,-31.83186,118.43649
AMATANGOORA POINT,Cape / Headland / Point,-16.73752,123.13264
AMBANIA,Place Name,-28.68299,115.11164
AMBERGATE,Place Name,-33.70637,115.32627
AMERILLUP,Homestead,-34.5939,117.31159
AMERY,Place Name,-31.15204,117.08831
AMHERST POINT,Cape / Headland / Point,-23.56021,113.7129
AMIENS HILL,Mountain / Peak / Hill,-31.22079,116.34014
AMPHION,Place Name,-32.75427,116.20531
AMPORT HILL,Mountain / Peak / Hill,-31.29953,116.27119
AMUR POINT,Cape / Headland / Point,-17.23994,123.61936
AMY GILES ROCKS,Place Name,-25.89413,128.52516
AMY ROCKS,Place Name,-27.8775,125.32407
ANCHOR HILL,Mountain / Peak / Hill,-20.62866,117.74298
ANCHOR HILL,Mountain / Peak / Hill,-24.8544,113.62343
ANCHORAGE BAY,Bay / Inlet / Cove,-30.05682,114.96263
ANDERDON ISLANDS,Place Name,-14.92951,125.19809
ANDERSON ROCKS,Place Name,-32.1669,118.85411
ANGAS HILLS,Place Name,-22.94314,128.10966
ANGUS DOWNS,Homestead,-34.66814,117.32853
ANJO HILL,Mountain / Peak / Hill,-13.95174,126.56428
ANJO PENINSULA,Place Name,-13.97316,126.51941
ANJO POINT,Cape / Headland / Point,-13.95358,126.57694
ANKETELL,Homestead,-28.02812,118.85155
ANKETELL HILLS,Mountain / Peak / Hill,-20.44437,122.52098
ANNA PLAINS,Homestead,-19.25159,121.48839
ANNANDALE,Place Name,-32.20171,116.81788
ANNE RANGE,Place Name,-24.76856,128.66907
ANNEAN,Homestead,-26.87572,118.17158
ANNES PASS,Pass,-32.8969,121.18525
ANNIE PEAK,Mountain / Peak / Hill,-33.85502,119.9808
ANT HILL,Mountain / Peak / Hill,-18.18357,128.23627
ANT HILL PEAK,Mountain / Peak / Hill,-22.08287,120.59496
ANT POINT,Cape / Headland / Point,-20.71169,115.46936
ANTHON LANDING,Place Name,-15.46277,128.10004
ANTRIM PLATEAU,Place Name,-18.12119,128.25619
ANUMARRAPIRTI,Homestead,-26.18378,128.64096
ANZAC HILL,Mountain / Peak / Hill,-31.20456,116.33221
APPA HILL,Mountain / Peak / Hill,-28.72753,114.77877
APPADAGENNA PEAKS,Mountain / Peak / Hill,-28.20704,114.54922
ARAGOON,Place Name,-14.42771,126.63442
ARALUEN,Place Name,-32.12451,116.09923
ARCHIKEELYA PADDOCK,Place Name,-17.41544,126.2168
ARCOONA,Place Name,-30.41827,122.15063
ARDAGH ROCKS,Place Name,-27.87755,123.30991
ARDATH,Place Name,-32.02787,118.09699
ARDINGLY,Place Name,-28.58367,115.44198
ARDJORIE,Homestead,-18.76427,123.71982
ARGYLE,Place Name,-33.5488,115.76531
ARGYLE DOWNS,Homestead,-16.50329,128.91815
ARGYLE HISTORIC HOMESTEAD,Homestead,-16.1096,128.74975
ARGYLE VILLAGE,Place Name,-16.68559,128.43253
ARID BAY,Bay / Inlet / Cove,-33.99106,123.15626
ARK POINT,Place Name,-33.32517,123.89788
ARMADALE,Place Name,-32.15029,116.01132
ARNOLD CREEK,Homestead,-25.9607,128.56271
ARRAMALL CAVE,Place Name,-29.48694,115.04303
ARRINO,Place Name,-29.43865,115.6269
ARRINO HILL,Mountain / Peak / Hill,-29.43761,115.66586
ARRONVALE,Homestead,-34.15584,117.34941
ARROWSMITH,Place Name,-29.57072,115.06783
ARTESIAN RANGE,Place Name,-16.47838,125.04982
ARTHUR HEAD,Cape / Headland / Point,-32.05518,115.73879
ARTHUR RIVER,Place Name,-33.33788,117.03509
ARTHUR RIVER OUTCAMP,Place Name,-24.70916,115.7488
ARTHURS KNOB,Mountain / Peak / Hill,-34.33638,118.36423
ARUBIDDY,Homestead,-31.80919,125.92533
ARUNDEL,Homestead,-34.47826,117.48278
ASHBURTON DOWNS,Homestead,-23.38684,117.03436
ASHBURTON ROAD,Place Name,-21.64188,114.96579
ASHENDON,Place Name,-32.21388,116.19123
ASHFIELD,Place Name,-31.9125,115.9345
ASHGROVE,Homestead,-33.45958,121.26825
ASHTON HILLS,Place Name,-24.92217,119.11705
ASHTON RANGE,Place Name,-15.16449,126.8322
ASPLIN,Place Name,-33.808,116.49225
ASSHLYN ISLANDS,Place Name,-16.13284,123.29033
ATHELSTON,Homestead,-34.54477,117.69855
ATLEY,Homestead,-28.2243,119.07348
ATTUNGA,Homestead,-33.26728,118.88684
AUGUST POINT,Cape / Headland / Point,-14.07564,126.21219
AUGUSTA,Populated Place,-34.31566,115.15922
AUGUSTUS SPRINGS ISLAND,Waterbody Island,-24.28675,116.87403
AUGUSTUS WATER,Bay / Inlet / Cove,-15.44954,124.66072
AURIFEROUS ISLAND,Waterbody Island,-29.11046,119.63628
AURORA,Homestead,-34.16414,117.40149
AUSKI ROADHOUSE,Place Name,-22.37715,118.68912
AUSTIN,Place Name,-27.63167,117.87643
AUSTIN BAY,Bay / Inlet / Cove,-32.63672,115.74687
AUSTIN DOWNS,Homestead,-27.38041,117.74568
AUSTRALIND,Populated Place,-33.2792,115.71504
AVALON,Place Name,-32.58808,115.64537
AVOCA DOWNS,Homestead,-30.95227,122.32286
AVON YARD,Place Name,-31.64005,116.64957
AVONLEIGH,Homestead,-34.86219,117.27441
AXE HILL,Mountain / Peak / Hill,-26.37381,126.79077
BAANDEE,Place Name,-31.57927,117.98034
BAANGA HILL,Mountain / Peak / Hill,-33.15154,119.84253
BABA HEAD,Cape / Headland / Point,-26.60279,113.68899
BABA POINT,Cape / Headland / Point,-26.65908,113.68121
BABAKIN,Place Name,-32.1232,118.02277
BABBACOORINGANNA,Place Name,-20.63532,118.2646
BABBYALLA HILLS,Place Name,-32.13738,116.99019
BABILION RANGE,Place Name,-31.01313,116.05966
BABRONGAN TOWER,Mountain / Peak / Hill,-18.59847,123.55035
BABY BARNETT HILL,Mountain / Peak / Hill,-34.38555,117.80802
BACK BEACH,Beach,-34.40964,119.39502
BACKDOOR HILLS,Place Name,-24.62028,119.0654
BACON HILL,Mountain / Peak / Hill,-31.12476,118.765
BADBATTING HILL,Mountain / Peak / Hill,-31.10436,116.80812
BADDERA,Place Name,-28.28399,114.64404
BADGARNING ROCKS,Place Name,-33.31196,117.28067
BADGEBUP,Place Name,-33.63375,117.90104
BADGERADDA RANGE,Place Name,-26.85954,115.54768
BADGERADDA RANGE,Place Name,-26.96551,115.49646
BADGINGARRA,Place Name,-30.39876,115.55443
BADGINGARRA,Place Name,-30.38713,115.49698
BADJA,Homestead,-28.60027,116.77852
BADJALING,Place Name,-32.00018,117.50281
BAGGALEY HILL,Mountain / Peak / Hill,-26.70407,128.85098
BAILEY ISLAND,Waterbody Island,-26.90955,118.3155
BAILEY RANGE,Place Name,-28.51371,123.10144
BAILEY RANGE,Place Name,-28.40703,122.98819
BAILUP,Place Name,-31.72098,116.27884
BAILY RANGE,Place Name,-18.42403,127.51615
BAINES HILLS,Place Name,-19.41327,128.10497
BAKER RANGE,Place Name,-25.8161,125.9655
BAKERS HILL,Mountain / Peak / Hill,-34.28279,116.93297
BAKERS HILL,Mountain / Peak / Hill,-31.76598,116.44779
BAKERS HILL,Place Name,-31.74891,116.45664
BAKERS JUNCTION,Place Name,-34.93039,117.91497
BALADJIE,Place Name,-30.98551,118.89119
BALADJIE ROCK,Place Name,-30.95499,118.87649
BALAFIELD,Homestead,-33.50838,116.68883
BALAGUNDI,Place Name,-30.72853,121.68265
BALAMI RIDGE,Place Name,-15.94673,124.53001
BALBALINGUP,Homestead,-34.20406,117.06967
BALBARRUP,Place Name,-34.23747,116.20922
BALBINYA,Place Name,-33.0909,123.5917
BALCATTA,Place Name,-31.87056,115.83083
BALD HEAD,Cape / Headland / Point,-35.10827,118.01997
BALD HILL,Mountain / Peak / Hill,-32.15483,116.81302
BALD HILL,Place Name,-24.7595,119.73674
BALD HILL,Mountain / Peak / Hill,-30.5163,115.67067
BALD HILL,Mountain / Peak / Hill,-19.59022,128.8621
BALD HILL,Mountain / Peak / Hill,-16.00165,127.07813
BALD HILL,Mountain / Peak / Hill,-15.07949,128.47549
BALD HILL,Mountain / Peak / Hill,-31.6065,116.22531
BALD ISLAND,Waterbody Island,-34.94225,116.4852
BALD ROCK,Place Name,-31.5989,116.92749
BALDIVIS,Place Name,-32.30722,115.82257
BALFOUR DOWNS,Homestead,-33.79101,118.7664
BALFOUR DOWNS,Homestead,-22.79925,120.86409
BALGAIR,Homestead,-31.09078,125.658
BALGARRI,Place Name,-30.47957,121.11567
BALGO HILL,Mountain / Peak / Hill,-20.12069,127.79392
BALGO HILLS,Place Name,-20.14277,127.9858
BALI,Place Name,-30.97573,121.02657
BALINGUP,Place Name,-33.78817,115.98545
BALKULING,Place Name,-31.98103,117.11684
BALLA BALLA,Place Name,-20.68929,117.78585
BALLA BALLA HARBOUR,Bay / Inlet / Cove,-20.66545,117.77214
BALLA ROCK,Place Name,-26.90534,116.02659
BALLADONIA,Homestead,-32.4577,123.86647
BALLADONIA HOTEL-MOTEL,Place Name,-32.3522,123.61724
BALLAJURA,Place Name,-31.85536,115.89345
BALLANHOE PEAKS,Place Name,-27.49471,119.16669
BALLATARRA HILL,Mountain / Peak / Hill,-28.41556,114.68017
BALLAYING,Place Name,-33.30755,117.55351
BALLIDU,Place Name,-30.59773,116.77006
BALLOO HILL,Mountain / Peak / Hill,-26.77467,116.81936
BALLYTHUNNA,Homestead,-26.06601,115.66746
BALLYTHUNNA HILL,Mountain / Peak / Hill,-26.05863,115.66509
BALMORAL,Homestead,-21.15982,116.1164
BALYER BLUFF,Place Name,-27.50549,117.56683
BAMBOO CREEK,Place Name,-20.93098,120.21509
BAMBOO LANDING,Place Name,-18.66355,121.77999
BAMBOO SPRINGS,Place Name,-22.05153,119.63957
BANDALUP HILL,Mountain / Peak / Hill,-33.64503,120.37562
BANDICOOT RANGE,Place Name,-15.79501,128.61953
BANDUPPIN ROCK,Place Name,-31.9881,117.68875
BANDY ROCK,Place Name,-29.15407,119.80373
BANDYA,Homestead,-27.69674,122.13392
BANDYA HILL,Mountain / Peak / Hill,-27.78933,122.15176
BANDYUP WOMENS PRISON,Place Name,-31.8621,115.99484
BANGEMALL,Place Name,-24.2083,116.43937
BANJAWARN,Homestead,-27.70424,121.61081
BANJUP,Place Name,-32.13127,115.87792
BANKSIA GROVE,Place Name,-31.69549,115.8157
BANKY BEACH,Beach,-34.45934,119.39271
BANNISTER,Place Name,-32.68026,116.5203
BANNISTER HILL,Mountain / Peak / Hill,-32.63545,116.49739
BAR FLATS,Place Name,-25.88911,113.27855
BARAMUNDI RANGE,Place Name,-18.05253,126.16594
BARBALIN,Place Name,-30.88334,118.11694
BARBILGUNYAH HILL,Mountain / Peak / Hill,-21.25717,120.96534
BARBWIRE RANGE,Place Name,-18.98817,125.00373
BARCOOTING HILL,Mountain / Peak / Hill,-30.81374,118.87138
BARDI (ONE ARM POINT),Populated Place,-16.44639,123.06434
BARDIA HILL,Mountain / Peak / Hill,-31.25323,116.28818
BARDOC,Place Name,-30.33823,121.29596
BARE GRANITE HILL,Mountain / Peak / Hill,-26.40006,121.47601
BARE HILL,Mountain / Peak / Hill,-31.05456,122.16742
BARINE ROCK,Place Name,-31.37132,117.51789
BARING DOWNS,Place Name,-23.26537,117.20137
BARITE RANGE,Place Name,-21.15047,119.43706
BARJARDER,Place Name,-27.58164,115.92822
BARKALA,Homestead,-33.28581,116.68516
BARKER GORGE,Gorge,-17.25794,124.72446
BARKER PASSAGE,Place Name,-28.3198,113.60654
BARKODULGA,Place Name,-28.12259,115.72885
BARLANGI ROCK,Place Name,-27.18271,118.83444
BARLEE IMPEDIMENT,Place Name,-15.79446,124.67431
BARLEE RANGE,Place Name,-23.6992,116.28766
BARLINA,Homestead,-34.75093,117.43747
BARLOWEERINYER HILL,Mountain / Peak / Hill,-26.7927,117.98522
BARN HILL,Mountain / Peak / Hill,-18.36566,122.04447
BARN HILL OUTSTATION,Homestead,-18.369,122.04048
BARNARD ROCKS,Place Name,-26.10935,128.34139
BARNES ISLAND,Waterbody Island,-15.19085,128.17123
BARNETT PEAK,Mountain / Peak / Hill,-34.34831,117.88396
BARNETT POINT,Cape / Headland / Point,-14.93779,128.2972
BARNETT RANGE,Place Name,-16.6952,126.07131
BARNETT RANGE,Place Name,-16.66191,126.11582
BARNETT RIVER GORGE,Gorge,-16.53294,126.13822
BARNICARNDY HILLS,Place Name,-21.22884,121.68101
BARNONG,Homestead,-28.63114,116.27795
BARON RANGE,Place Name,-23.6315,127.20608
BAROOKEE HILL,Mountain / Peak / Hill,-33.16853,119.87641
BAROONA HILL,Mountain / Peak / Hill,-21.48432,120.48945
BAROWANNA HILL,Mountain / Peak / Hill,-21.42919,117.15985
BARR SMITH RANGE,Place Name,-27.10776,120.26728
BARRACK POINT,Cape / Headland / Point,-34.34546,115.16929
BARRAGUP,Place Name,-32.54868,115.77506
BARRAMBIE,Homestead,-27.52133,119.18668
BARRAWEELBARRA HILL,Mountain / Peak / Hill,-28.32778,115.45495
BARRETTS CROSSING,Place Name,-31.3312,116.26368
BARRIER ANCHORAGE,Bay / Inlet / Cove,-33.9798,123.15819
BARRON HILLS,Place Name,-32.82519,117.11845
BARRONHURST,Place Name,-34.43326,116.0689
BARROW HILL,Mountain / Peak / Hill,-26.3152,127.42217
BARROW RANGE,Place Name,-25.93857,127.45669
BARTON PLAIN,Place Name,-14.32979,126.9619
BARTON PLAINS,Homestead,-14.25878,126.90325
BARTONS MILL,Place Name,-32.05566,116.2054
BARWIDGEE,Homestead,-27.03574,120.92461
BASKERVILLE,Place Name,-31.80296,116.01975
BASSENDEAN,Place Name,-31.90281,115.94678
BATEMAN BAY,Bay / Inlet / Cove,-23.0958,113.78285
BATES CAVE,Place Name,-32.31428,118.96505
BATES RANGE,Place Name,-27.45342,121.08928
BATHURST POINT,Cape / Headland / Point,-31.99091,115.54292
BATTERY POINT,Cape / Headland / Point,-15.50441,124.44734
BATTHEWMURNARNA HILL,Mountain / Peak / Hill,-24.96234,119.37386
BATTLE HILL,Mountain / Peak / Hill,-22.72604,120.10739
BATTLEMENT ROCKS,Place Name,-20.10333,123.2876
BATYALLIN HILL,Mountain / Peak / Hill,-32.55628,116.92928
BAUDIN POINT,Cape / Headland / Point,-32.24396,115.68148
BAULK FACE RANGE,Place Name,-17.35547,126.73932
BAY OF REST,Bay / Inlet / Cove,-22.3081,114.13229
BAYLISS ISLANDS,Place Name,-16.22672,123.50157
BAYONET HEAD,Cape / Headland / Point,-34.97942,117.94561
BAYONET HEAD,Place Name,-34.97859,117.93716
BAYONET HILL,Mountain / Peak / Hill,-16.32798,125.53671
BAYSWATER,Place Name,-31.91812,115.91424
BAYULU,Populated Place,-18.29996,125.59574
BEACON,Place Name,-30.45128,117.86565
BEACON HEAD,Cape / Headland / Point,-32.15695,115.66858
BEACON HILL,Mountain / Peak / Hill,-26.83791,122.58367
BEACON POINT,Cape / Headland / Point,-22.62845,113.66974
BEADON POINT,Cape / Headland / Point,-21.63212,115.10897
BEAGLE BAY,Populated Place,-16.9809,122.66748
BEAGLE BAY,Bay / Inlet / Cove,-16.91245,122.53695
BEAGLE HILL,Mountain / Peak / Hill,-24.48597,113.41944
BEAL OUTSTATION,Homestead,-26.32106,126.94088
BEANTHINY HILL,Mountain / Peak / Hill,-29.58139,117.26259
BEARDMORE RIDGE,Place Name,-34.80877,116.67746
BEASLEY PINNACLES,Mountain / Peak / Hill,-23.50481,117.10717
BEATENALLY HILL,Mountain / Peak / Hill,-28.6944,114.79745
BEATON GORGE,Gorge,-21.88576,120.09173
BEATRICE MAY BLUFF,Mountain / Peak / Hill,-26.43083,123.94818
BEATTY,Place Name,-28.51545,115.65233
BEAUTY POINT,Cape / Headland / Point,-13.97274,126.79694
BEBENORIN HILL,Mountain / Peak / Hill,-33.67961,123.01401
BECHER POINT,Cape / Headland / Point,-32.37061,115.71535
BECKENHAM,Place Name,-32.02226,115.95368
BEDARLO,Place Name,-30.09858,118.0065
BEDFORD DOWNS,Homestead,-17.26117,127.46304
BEDFORD ISLANDS,Place Name,-16.14036,123.32251
BEDFORD RANGE,Place Name,-25.1397,127.24065
BEDFORDALE,Place Name,-32.17998,116.06727
BEDOWAN HILL,Mountain / Peak / Hill,-31.29449,116.52332
BEDUNBURRA,Place Name,-17.6409,123.17179
BEE GORGE,Gorge,-22.25168,118.25702
BEE HILL,Mountain / Peak / Hill,-22.0174,120.87518
BEEBEEGNYING HILLS,Mountain / Peak / Hill,-30.63523,117.8659
BEEBERING HILLS,Place Name,-31.59888,117.00893
BEEBYN,Homestead,-26.96859,117.90113
BEEBYNBEEBYNGANNA HILL,Mountain / Peak / Hill,-27.03072,117.82379
BEECHBORO,Place Name,-31.87537,115.94447
BEECHINA,Place Name,-31.85824,116.31349
BEECHINA HILL,Mountain / Peak / Hill,-31.81765,116.33487
BEEDEINNA HILL,Mountain / Peak / Hill,-27.87277,116.42455
BEEDIE BEEDIE HILL,Mountain / Peak / Hill,-27.34583,116.64049
BEEDINA HILL,Mountain / Peak / Hill,-21.03172,116.66111
BEEFWOOD PARK,Homestead,-18.99069,125.843
BEELA,Place Name,-33.23449,115.91299
BEELERUP,Place Name,-33.56722,115.8501
BEELU ISLAND,Waterbody Island,-24.94289,115.89954
BEENONG,Place Name,-33.04228,118.59419
BEERINGGNURDING HILL,Mountain / Peak / Hill,-29.89544,117.91382
BEERMULLAH,Place Name,-31.21236,115.80198
BEERMULLAH PLAIN,Place Name,-31.1834,115.75206
BEETE,Place Name,-32.70266,121.53872
BEETHEN OUTCAMP,Place Name,-26.80641,113.74824
BEETLE ROCK,Place Name,-34.29092,118.32288
BEHN GORGE,Gorge,-16.48841,128.90021
BEJAH HILL,Mountain / Peak / Hill,-23.78964,124.19741
BEJALING SAND PATCH,Place Name,-24.59305,113.51408
BEJOORDING,Place Name,-31.38468,116.53241
BEKKER HILL,Mountain / Peak / Hill,-32.14485,121.83111
BELELE,Homestead,-26.36047,118.03148
BELHUS,Place Name,-31.78336,116.00574
BELINUP HILL,Mountain / Peak / Hill,-33.84508,123.01906
BELKA,Place Name,-31.73448,118.17022
BELL GORGE,Gorge,-16.97421,125.19256
BELL GORGE,Gorge,-16.9363,125.17824
BELL POINT,Cape / Headland / Point,-16.77823,122.69445
BELL ROCK,Place Name,-26.12258,128.59787
BELL ROCK RANGE,Place Name,-26.20593,128.71689
BELLAKIN HILL,Mountain / Peak / Hill,-33.53621,117.59693
BELLANGER BEACH,Beach,-35.01702,116.78585
BELLEAIR,Homestead,-34.70071,117.77179
BELLEFIN PRONG,Cape / Headland / Point,-26.13278,113.30457
BELLEVUE,Place Name,-31.88792,116.05157
BELLS TOWER,Mountain / Peak / Hill,-17.3102,122.93857
BELMONT,Place Name,-31.94142,115.92583
BELMONT PARK,Place Name,-31.94804,115.89159
BELMUNGING,Place Name,-31.86282,117.16219
BELT PINNACLE,Mountain / Peak / Hill,-24.53296,123.85059
BELVIDERE BEACH,Beach,-33.22445,115.68264
BEN DEARG BEACH,Beach,-35.006,118.05693
BENALLA HILL,Mountain / Peak / Hill,-28.83758,121.66627
BENARI,Place Name,-31.09409,120.69411
BENBENGADAGING HILL,Mountain / Peak / Hill,-31.36446,116.5246
BENCUBBIN,Place Name,-30.8094,117.86246
BEND ISLAND,Waterbody Island,-25.07542,115.46075
BEND POINT,Mountain / Peak / Hill,-18.4458,123.22666
BENDERINE ROCK,Place Name,-31.53007,117.65016
BENDERING,Place Name,-32.3932,118.30128
BENEDICTINE BAY,Bay / Inlet / Cove,-20.41165,115.58167
BENELONG,Homestead,-33.37437,120.73086
BENGER,Place Name,-33.1749,115.86075
BENJABERRING,Place Name,-31.14478,117.28823
BENJINUP,Place Name,-33.76423,116.31392
BENNELAKING,Place Name,-33.45613,116.57964
BENNETT RANGE,Place Name,-34.94119,117.213
BENTENALLING ROCK,Place Name,-31.57869,116.83893
BENTLEY HILL,Mountain / Peak / Hill,-25.82891,127.1171
BERAKING,Place Name,-32.0864,116.33176
BERGINING,Place Name,-32.71139,116.00157
BERIA,Place Name,-28.56114,122.38469
BERIJUP,Place Name,-32.57816,115.87498
BERINGARRA,Homestead,-26.04067,116.95353
BERRING,Place Name,-31.26492,116.91275
BERRY BROW HILL,Mountain / Peak / Hill,-31.80803,116.51457
BERTHA PEAK,Mountain / Peak / Hill,-18.14954,127.95529
BERTRAM COVE,Bay / Inlet / Cove,-14.02607,127.45035
BETTIE CROSSING,Place Name,-27.49429,114.32074
BETTYS BEACH,Beach,-34.93106,118.21035
BEVERLEY,Populated Place,-32.10896,116.9228
BEVERLEY SPRINGS,Homestead,-16.7153,125.46132
BEYONDIE,Homestead,-24.78804,120.03778
BEYONDIE BLUFF,Mountain / Peak / Hill,-24.71117,119.91409
BIBBY GIDDY OUTCAMP,Place Name,-26.33143,113.37869
BIBILUP,Place Name,-33.92196,115.73555
BIBRA LAKE,Place Name,-32.10546,115.82794
BICK POCKET,Place Name,-16.3979,126.97615
BICKLEY,Place Name,-32.00653,116.08572
BIDAMINNA HILL,Mountain / Peak / Hill,-31.132,115.54577
BIDGEMIA,Homestead,-25.04065,115.3091
BIDGERABBIE HILL,Mountain / Peak / Hill,-30.8103,115.78936
BIDIJUL,Place Name,-18.61099,125.12386
BIDYADANGA COMMUNITY,Populated Place,-18.68366,121.77889
BIG BEACH,Beach,-26.42852,113.56187
BIG BELL,Place Name,-27.33971,117.66114
BIG ISLAND,Waterbody Island,-24.12497,115.62095
BIG LAGOON,Bay / Inlet / Cove,-25.71999,113.45787
BIGGE POINT,Cape / Headland / Point,-14.28167,125.72806
BIGINA,Place Name,-25.04887,115.30862
BIJERY MUMAL HILL,Mountain / Peak / Hill,-27.49545,120.60333
BILBARIN,Place Name,-32.2043,117.9514
BILBARIN HILL,Mountain / Peak / Hill,-32.09724,116.96362
BILBARRD OUTSTATION,Homestead,-21.97908,127.73418
BILBERTHA HILL,Mountain / Peak / Hill,-28.43683,116.72786
BILBUNYA DUNES,Place Name,-32.96252,124.31548
BILGA ROCK,Place Name,-26.95527,115.94161
BILLABALONG,Homestead,-27.42189,115.83451
BILLABONG HOLES,Place Name,-16.44219,126.62948
BILLABONG ROADHOUSE,Place Name,-26.81617,114.61257
BILLADERRIN ROCK,Place Name,-32.08917,118.30073
BILLERICAY,Place Name,-32.27627,118.3272
BILLIBURNING ROCK,Place Name,-30.17142,117.91275
BILLIKIBILLIKINE,Place Name,-31.7981,117.35969
BILLILUNA,Homestead,-19.55599,127.66148
BILLINGARRA,Place Name,-23.2606,118.10862
BILLINOOKA,Homestead,-23.03817,120.89213
BILLS BAY,Bay / Inlet / Cove,-23.13171,113.76143
BILLS PADDOCK,Place Name,-33.0756,123.44725
BILLYACATTING HILL,Mountain / Peak / Hill,-31.0502,118.02764
BILOCUPPING,Place Name,-30.61498,118.29966
BIMBIJY,Homestead,-29.6982,118.03834
BIMBIJY CLIFF,Mountain / Peak / Hill,-29.68586,118.03417
BINARONCA ROCK,Place Name,-31.70625,121.69256
BINDANGWAH,Place Name,-27.30363,116.79737
BINDAREE,Homestead,-33.71044,116.53452
BINDI BINDI,Place Name,-30.63053,116.36482
BINDOO HILL,Mountain / Peak / Hill,-28.49269,115.2496
BINDOON,Place Name,-31.38221,116.09448
BINDOON HILL,Mountain / Peak / Hill,-31.33626,116.13764
BINDULI,Place Name,-30.79329,121.4141
BING SIDING,Place Name,-20.44658,118.62817
BINJARRABIN ROCK,Place Name,-31.31895,118.49872
BINNINGUP,Populated Place,-33.1483,115.69519
BINNU,Place Name,-28.04171,114.6735
BINTHALYA,Homestead,-24.68802,114.83687
BINYARINYINNA ROCK,Place Name,-31.5613,122.09236
BIRDWHISTLE ROCK,Place Name,-32.89056,117.46905
BIRDWOOD DOWNS,Homestead,-17.34862,123.77008
BIRIDU,Place Name,-17.88826,125.62252
BIRMINGHAM HILL,Mountain / Peak / Hill,-29.28756,121.44349
BISHOP HILL,Mountain / Peak / Hill,-29.62486,115.3693
BISHOP RANGE,Place Name,-20.58971,127.36094
BISHOP RILEYS PULPIT,Mountain / Peak / Hill,-28.23387,124.67507
BISHOPS DELL,Place Name,-20.69357,127.50303
BIVOUACK ROCKS,Place Name,-33.99524,119.28012
BLACK CLIFF POINT,Cape / Headland / Point,-15.0369,128.10028
BLACK FLAG,Place Name,-30.55985,121.24738
BLACK HEAD,Cape / Headland / Point,-34.76171,115.96276
BLACK HEAD,Cape / Headland / Point,-34.51734,118.80744
BLACK HEAD,Cape / Headland / Point,-35.12134,117.92397
BLACK HILL,Mountain / Peak / Hill,-20.53695,120.01249
BLACK HILL,Mountain / Peak / Hill,-23.35962,115.00591
BLACK HILL,Mountain / Peak / Hill,-22.55584,115.87185
BLACK HILL,Mountain / Peak / Hill,-20.99561,117.45444
BLACK HILL,Homestead,-28.07117,119.54434
BLACK HILLS,Place Name,-21.23858,117.11238
BLACK MAC,Mountain / Peak / Hill,-32.6391,123.75669
BLACK POINT,Cape / Headland / Point,-34.42156,115.54155
BLACK POINT,Cape / Headland / Point,-34.45777,119.41951
BLACK POINT,Cape / Headland / Point,-30.45631,115.06388
BLACK POINT,Mountain / Peak / Hill,-17.5249,128.16792
BLACK RANGE,Place Name,-21.64011,119.43578
BLACK RANGE,Place Name,-23.86497,115.51892
BLACK RANGE,Place Name,-30.40973,121.04675
BLACK RANGE,Homestead,-27.92315,119.19995
BLACK ROCK,Mountain / Peak / Hill,-18.5554,127.28639
BLACK ROCK PASSAGE,Place Name,-22.75958,113.68914
BLACK ROCK POINT,Cape / Headland / Point,-18.67354,121.7543
BLACK ROCKS,Mountain / Peak / Hill,-19.88784,126.81332
BLACK SPUR,Mountain / Peak / Hill,-18.92322,126.21219
BLACKBOY HILL,Mountain / Peak / Hill,-33.06435,116.58342
BLACKBOY HILL,Mountain / Peak / Hill,-34.55022,118.63927
BLACKBOY HILLS,Place Name,-31.71515,116.86442
BLACKBOY ROCKS,Place Name,-27.89639,123.24113
BLACKFELLOW POINT,Mountain / Peak / Hill,-28.1413,124.49312
BLACKS LOOKOUT,Place Name,-26.14815,126.54549
BLACKSTONE RANGE,Place Name,-26.02468,128.22206
BLANKET HILLS,Place Name,-27.82005,122.89137
BLAXLAND RANGE,Place Name,-27.04811,123.71039
BLINA,Homestead,-17.74643,124.52632
BLIND INLET,Bay / Inlet / Cove,-26.20386,113.27138
BLIND STRAIT,Bay / Inlet / Cove,-26.13522,113.25701
BLOODS RANGE,Place Name,-24.73152,128.92437
BLOSSOMS BEACH,Beach,-34.46226,119.36633
BLOWFISH BANKS,Place Name,-24.76002,113.57654
BLOWFISH POINT,Cape / Headland / Point,-28.44121,113.70027
BLUE BAY,Bay / Inlet / Cove,-32.5224,115.69591
BLUE HAVEN,Beach,-33.88533,121.86205
BLUE HILL,Mountain / Peak / Hill,-29.59081,119.57572
BLUE HILLS,Homestead,-34.11338,118.35652
BLUE HILLS,Mountain / Peak / Hill,-17.98665,123.20006
BLUE HILLS,Place Name,-25.33197,120.83337
BLUE RANGE,Homestead,-34.21346,117.84931
BLUE ROBIN HILL,Mountain / Peak / Hill,-29.29184,124.6444
BLUE ROCK,Place Name,-32.32659,116.11289
BLUFF CREEK,Homestead,-34.81001,118.37997
BLUFF FACE RANGE,Place Name,-16.47187,127.26973
BLUFF HEAD,Cape / Headland / Point,-15.17934,128.15611
BLUFF HILL,Mountain / Peak / Hill,-21.04978,117.63494
BLUFF HILL,Mountain / Peak / Hill,-15.59528,124.4167
BLUFF KNOLL,Mountain / Peak / Hill,-34.37525,118.25598
BLUFF POINT,Cape / Headland / Point,-20.62171,116.54894
BLUFF POINT,Place Name,-28.74379,114.62288
BLUFF POINT,Cape / Headland / Point,-28.74204,114.61826
BLUFF POINT,Cape / Headland / Point,-27.85664,114.10868
BLUFF POINT,Cape / Headland / Point,-14.07434,126.65113
BLUFF POINT,Mountain / Peak / Hill,-28.13403,124.21337
BLUFF POINT,Place Name,-27.11414,119.64831
BLYTH HILLS,Place Name,-26.85165,128.96247
BOAIUP,Place Name,-33.55417,120.22997
BOALLIA,Place Name,-33.75191,115.29307
BOANAERNUP,Place Name,-33.63629,120.9766
BOAT HARBOUR,Bay / Inlet / Cove,-35.03545,117.08319
BOAT HAVEN LOOP,Bay / Inlet / Cove,-26.34112,113.50662
BOAT PASSAGE,Place Name,-22.814,113.77273
BOB BLACK HILLS,Place Name,-18.18598,127.78369
BOBAKINE HILLS,Place Name,-31.67312,116.53348
BOBBIE POINT,Mountain / Peak / Hill,-28.98172,124.66715
BOBOBOGOL DOLINE,Place Name,-31.77007,127.02781
BOBS CAMP,Place Name,-16.00379,125.51455
BOBSWIM,Place Name,-23.06146,118.08813
BOCOCOOPIN HILL,Mountain / Peak / Hill,-30.63986,118.48174
BOCRABEE HILL,Mountain / Peak / Hill,-22.49463,121.42038
BODALLIN,Place Name,-31.37192,118.85158
BODDINGTON,Populated Place,-32.80071,116.47522
BOFIN SIDING,Place Name,-20.3918,118.62051
BOGADI OUTCAMP,Place Name,-25.87916,115.76348
BOHEMIA DOWNS,Homestead,-18.89198,126.24968
BOIADA HILL,Mountain / Peak / Hill,-29.19361,116.51189
BOIVER FLAT,Place Name,-33.80319,115.85352
BOLD BLUFF,Place Name,-17.25909,125.42286
BOLD CLIFF,Mountain / Peak / Hill,-22.23963,117.78347
BOLGART,Place Name,-31.27464,116.50871
BOMBALA,Place Name,-32.81895,116.28498
BOMPAS HILL,Mountain / Peak / Hill,-27.28355,115.32119
BONAPARTE ARCHIPELAGO,Place Name,-15.26014,124.38374
BONAPARTE ARCHIPELAGO,Place Name,-14.34634,125.27564
BONDINI RESERVE,Place Name,-26.63768,120.26743
BONNEY DOWNS,Homestead,-22.18318,119.93345
BONNIE HILL,Mountain / Peak / Hill,-33.33226,123.10132
BONNIE ROCK,Place Name,-30.53554,118.36495
BONNIE VALE,Place Name,-30.84184,121.15073
BONORIN HILL,Mountain / Peak / Hill,-31.76288,115.74748
BONYTHON BLUFF,Mountain / Peak / Hill,-26.51651,122.30874
BONYTHON RANGE,Place Name,-23.63556,128.9609
BOOANYA ROCK,Mountain / Peak / Hill,-32.76031,123.60562
BOODAHDAYOO HILL,Mountain / Peak / Hill,-25.59685,122.55058
BOODALLIA OUTSTATION,Homestead,-25.18302,113.89515
BOODANOO,Homestead,-28.72725,118.26758
BOODANOO HILL,Mountain / Peak / Hill,-28.5758,118.31429
BOODARIE,Homestead,-20.40579,118.4702
BOODARIE HILL,Mountain / Peak / Hill,-20.39087,118.51876
BOODAROCKIN,Place Name,-31.00809,118.80574
BOODARRIE LANDING,Place Name,-20.34354,118.45096
BOODIE BOODIE RANGE,Place Name,-25.80396,123.19448
BOODRAH JUNCTION,Road Junction,-26.70111,117.29636
BOOEYNUP,Place Name,-33.80252,121.34587
BOOGARDIE,Homestead,-28.04226,117.66963
BOOGARDIE,Place Name,-28.03501,117.79922
BOOGARRA HILL,Mountain / Peak / Hill,-27.3488,116.54696
BOOGATHARRA,Place Name,-28.30732,116.87176
BOOK BOOK,Homestead,-34.54172,118.11858
BOOKA BOOKA HILL,Mountain / Peak / Hill,-26.29485,115.76096
BOOKARA,Place Name,-29.0469,114.86004
BOOKARGINNER OUTCAMP,Homestead,-21.21219,117.37922
BOOLADING,Place Name,-33.357,116.62683
BOOLAGOORDA,Place Name,-26.3926,114.16884
BOOLALOO,Homestead,-22.58306,115.87153
BOOLAN HILL,Mountain / Peak / Hill,-24.49395,113.67733
BOOLARDY,Homestead,-26.98379,116.53234
BOOLARONG,Homestead,-34.73037,118.21362
BOOLATHANA,Homestead,-24.65075,113.69457
BOOLBUNDIE,Place Name,-30.64887,122.40196
BOOLGEEDA,Place Name,-22.50588,117.22
BOOLGIN,Place Name,-16.3968,122.99762
BOOLOGOORO,Homestead,-24.33486,114.03289
BOOLTHARDA HILL,Mountain / Peak / Hill,-27.62886,116.48094
BOOMER HILL,Mountain / Peak / Hill,-31.30973,116.34481
BOOMERANG BAY,Bay / Inlet / Cove,-14.53551,125.12233
BOONANARRING HILL,Mountain / Peak / Hill,-31.24251,115.85535
BOONARING HILL,Mountain / Peak / Hill,-31.84531,116.66531
BOONDEROO,Place Name,-31.015,124.47276
BOONDI,Place Name,-31.19041,120.40278
BOONDIN HILL,Mountain / Peak / Hill,-26.46243,122.78927
BOONDINE HILL,Mountain / Peak / Hill,-30.26543,119.24139
BOONERING HILL,Mountain / Peak / Hill,-32.57324,116.36727
BOONJADING ROCK,Place Name,-31.47068,116.82269
BOONMAH HILL,Mountain / Peak / Hill,-28.08214,116.73451
BOONOOK BAY,Bay / Inlet / Cove,-16.21279,123.58338
BOONWARRAH,Place Name,-25.07762,115.64523
BOORA ISLAND,Waterbody Island,-24.75733,114.19385
BOORAAN,Place Name,-31.43676,118.37833
BOORABBIN,Place Name,-31.20851,120.31217
BOORAGIMING ROCK,Place Name,-32.47812,116.8169
BOORAGOON,Place Name,-32.04607,115.83533
BOORARA,Place Name,-30.80317,121.63464
BOORARA HILL,Mountain / Peak / Hill,-30.80863,121.65637
BOORD RIDGES,Place Name,-23.31525,128.69777
BOOTENAL,Place Name,-28.84747,114.71968
BOOTHENDARA HILL,Mountain / Peak / Hill,-30.26741,115.55616
BOOYEEMA HILL,Mountain / Peak / Hill,-21.35776,116.41971
BOOYLGOO RANGE,Place Name,-27.76256,119.91246
BOOYLGOO SPRING,Homestead,-27.75566,119.90727
BORACHIE,Homestead,-34.24616,117.11475
BORALA OUTCAMP,Place Name,-23.95587,114.08798
BORAYUKKIN ROCK,Place Name,-31.92473,118.77775
BORDEN,Place Name,-34.07224,118.26491
BORDERDALE,Homestead,-34.03143,117.42908
BORE PADDOCK HILLS,Place Name,-24.94593,116.87087
BOREE PARK,Homestead,-33.74628,116.57858
BORNHOLM,Place Name,-35.0469,117.58278
BORROWS HILL,Mountain / Peak / Hill,-26.32446,127.92255
BOSNA LODGE,Homestead,-20.44743,118.59584
BOTHERLING,Place Name,-31.13076,116.80473
BOTTLE BEACH,Beach,-25.54743,113.48847
BOUDIE HILL,Mountain / Peak / Hill,-28.40187,121.14922
BOUGAINVILLE PENINSULA,Place Name,-13.95541,126.10566
BOULDER,Populated Place,-30.78206,121.48884
BOULDER HILL,Mountain / Peak / Hill,-34.00303,122.18861
BOULDER HILL,Mountain / Peak / Hill,-34.9317,118.20055
BOULDER HILL,Mountain / Peak / Hill,-16.73929,124.2012
BOULDER POINT,Cape / Headland / Point,-24.85233,113.1478
BOUNDAIN,Place Name,-32.94189,117.32142
BOUNDARY HILL,Place Name,-19.33872,126.19717
BOUNDARY HILLS,Mountain / Peak / Hill,-18.46837,124.13202
BOUNDARY KNOB,Mountain / Peak / Hill,-17.08562,128.99287
BOUNDARY PEAK,Mountain / Peak / Hill,-26.28967,128.76913
BOW BRIDGE,Place Name,-34.96833,116.95298
BOW HILL,Mountain / Peak / Hill,-16.69402,128.21129
BOW RIVER,Homestead,-16.87221,128.18778
BOWELLING,Place Name,-33.41984,116.48358
BOWERLING HILL,Mountain / Peak / Hill,-32.55158,116.40628
BOWES,Place Name,-28.38297,114.66884
BOWES HILL,Mountain / Peak / Hill,-28.38993,114.59588
BOWGADA,Place Name,-29.33537,116.17469
BOWGADA NORTH,Place Name,-29.32173,116.14584
BOX BLUFF,Place Name,-24.78244,119.20072
BOXWOOD HILL,Place Name,-34.36584,118.75031
BOYA,Place Name,-31.91327,116.06681
BOYAGARRING HILL,Mountain / Peak / Hill,-32.30725,116.5373
BOYAGIN ROCK,Place Name,-32.47104,116.88159
BOYANUP,Populated Place,-33.48295,115.72838
BOYATUP,Place Name,-33.74451,123.02676
BOYATUP,Place Name,-33.81527,122.28676
BOYATUP HILL,Mountain / Peak / Hill,-33.73496,123.04139
BOYERINE,Place Name,-33.50079,117.40783
BOYUP BROOK,Populated Place,-33.83425,116.38776
BRACEGONIER FLAT,Place Name,-28.12953,117.31244
BRACEGONIER HILL,Mountain / Peak / Hill,-28.15496,117.28675
BRADLEYS,Place Name,-28.91031,114.78257
BRAEMORE,Homestead,-28.85175,121.33841
BRAESIDE,Place Name,-21.2053,121.00781
BRAMALL HILLS,Place Name,-19.41933,128.65
BRAMBLE POINT,Cape / Headland / Point,-35.04234,117.91434
BRAMFIELD,Homestead,-34.60089,117.72178
BRANCASTER,Homestead,-33.89353,116.56074
BRAND HILL,Mountain / Peak / Hill,-28.26104,114.4122
BRANDY HILL,Mountain / Peak / Hill,-28.77064,116.40521
BRASSEY RANGE,Place Name,-25.02072,122.27478
BRASSEY RANGE,Place Name,-24.97089,122.23132
BREADEN BLUFF,Mountain / Peak / Hill,-26.90306,124.47332
BREADEN VALLEY,Place Name,-20.26991,126.54999
BREAKER INLET,Bay / Inlet / Cove,-19.97217,119.15588
BRECKNOCK HARBOUR,Bay / Inlet / Cove,-15.46427,124.55582
BREMER BAY,Bay / Inlet / Cove,-34.40375,119.4363
BREMER BAY,Populated Place,-34.3924,119.38045
BREMER BEACH,Beach,-34.37184,119.42089
BREMNER PEAK,Mountain / Peak / Hill,-21.39316,124.29498
BRETON BAY,Bay / Inlet / Cove,-31.21518,115.41705
BRETON BAY,Place Name,-31.19942,115.41337
BRICK HOUSE,Homestead,-24.82128,113.78642
BRIDGETOWN,Populated Place,-33.96242,116.13598
BRIDLE FACE OUTCAMP,Homestead,-25.81099,120.62626
BRIDPORT POINT,Cape / Headland / Point,-32.3673,115.72698
BRIM GORGE,Gorge,-18.23674,127.99488
BRINGO,Place Name,-28.74384,114.84294
BROAD ARROW,Place Name,-30.44308,121.32725
BROADBENTS,Place Name,-29.66195,119.4871
BROADHURST BIGHT,Bay / Inlet / Cove,-25.5315,113.48587
BROADHURST PASS,Pass,-17.27454,125.41102
BROADHURST RANGE,Place Name,-22.35699,122.17975
BROADWATER,Place Name,-34.48221,115.68491
BROADWATER,Place Name,-33.6613,115.25917
BROCKMAN,Place Name,-22.4236,117.3341
BROCKMAN SIDING,Place Name,-34.50514,116.04832
BROKEN ANCHOR BAY,Bay / Inlet / Cove,-28.23732,114.31295
BROMUS,Place Name,-32.45685,121.64313
BRONC ROCK,Place Name,-29.81819,121.55094
BRONCO PLAINS,Place Name,-30.96876,122.88725
BRONZEWING MINE VILLAGE,Place Name,-27.35919,121.03395
BROOK PEAK,Mountain / Peak / Hill,-33.40189,123.59317
BROOKDALE,Place Name,-32.70257,115.95852
BROOKFIELD,Homestead,-33.31282,118.57501
BROOKHAMPTON,Place Name,-33.61187,115.87006
BROOKING GORGE,Gorge,-18.01379,125.52657
BROOKING GORGE,Gorge,-17.99769,125.49408
BROOKING HILLS,Place Name,-29.01555,120.00727
BROOKING SPRINGS,Homestead,-18.10875,125.64363
BROOKLANDS,Place Name,-33.79669,115.94767
BROOKS HILL,Mountain / Peak / Hill,-32.88783,117.48256
BROOKTON,Populated Place,-32.37235,117.0105
BROOME,Populated Place,-17.95538,122.23922
BROOME BIRD OBSERVATORY,Place Name,-17.97524,122.34442
BROOMEHILL,Place Name,-33.84453,117.64318
BROOMSTICK HILL,Mountain / Peak / Hill,-33.80315,122.13023
BROWN HILL,Place Name,-30.75818,121.52983
BROWN INLET,Bay / Inlet / Cove,-26.45638,113.4906
BROWN LOOKOUT,Mountain / Peak / Hill,-19.63683,126.86192
BROWN RANGE,Place Name,-24.90447,113.72403
BROWN RANGE,Place Name,-26.197,126.59608
BROWN RANGE TRACKING STATION,Place Name,-24.89561,113.71591
BROWNE RANGE,Place Name,-25.14671,125.0904
BROWNRIGG GORGE,Gorge,-17.28491,125.4462
BROWNRIGG HILL,Mountain / Peak / Hill,-21.99624,121.24383
BROWNS GAP,Pass,-28.01475,123.44535
BRUBOODJOO POINT,Cape / Headland / Point,-22.97762,113.82206
BRUCE ROCK,Populated Place,-31.88046,118.14749
BRUCE ROCK,Place Name,-31.86539,118.16825
BRUNBRUNGANJAL,Place Name,-18.86725,121.63919
BRUNEI BAY,Bay / Inlet / Cove,-14.40559,124.96866
BRUNSWICK BAY,Bay / Inlet / Cove,-15.18251,124.66943
BRUNSWICK BAY,Bay / Inlet / Cove,-15.17072,124.48196
BRUNSWICK JUNCTION,Populated Place,-33.25556,115.83655
BRUTEN HILL,Mountain / Peak / Hill,-18.69928,125.62917
BRYAH,Homestead,-25.5106,118.79582
BUACHE BAY,Bay / Inlet / Cove,-32.20696,115.66958
BUBB POINT,Cape / Headland / Point,-16.08554,123.58513
BUBBAWEEDARRA OUTCAMP,Homestead,-25.42945,115.57254
BUCCANEER ARCHIPELAGO,Place Name,-16.08974,123.40296
BUCCANEER ARCHIPELAGO,Place Name,-15.86531,123.588
BUCHANAN BAY,Bay / Inlet / Cove,-32.2048,115.68362
BUCK HILLS,Place Name,-23.1433,128.90745
BUCKBOARD POINT,Mountain / Peak / Hill,-16.82915,125.69269
BUCKINGHAM,Place Name,-33.39512,116.33213
BUCKLAND HILLS,Mountain / Peak / Hill,-21.93087,115.97319
BUCKLE HEAD,Cape / Headland / Point,-14.438,127.87086
BUCKNALL PINNACLE,Mountain / Peak / Hill,-18.90761,125.17017
BUDDADOO HILL,Mountain / Peak / Hill,-28.7154,116.46809
BUDDARNING PEAK,Mountain / Peak / Hill,-30.15292,119.14184
BUDGARJOOK,Place Name,-17.01741,122.52029
BUFFALO BEACH,Beach,-33.20087,115.68224
BUGIN ROCK,Place Name,-32.08666,117.38443
BULBARLI POINT,Cape / Headland / Point,-23.54933,113.72212
BULBI PLAIN,Place Name,-20.25176,127.34296
BULCHILBIDEE,Place Name,-19.22926,127.42958
BULDANIA,Place Name,-32.07713,122.01525
BULGA DOWNS,Homestead,-28.49619,119.7471
BULGAR HILL,Mountain / Peak / Hill,-29.01368,119.633
BULGIN ROCK,Place Name,-31.65837,117.08236
BULKA,Homestead,-19.05234,126.4203
BULKA HILLS,Place Name,-19.05815,126.49653
BULL FLAT,Place Name,-19.09125,126.07421
BULLABULLING,Place Name,-31.01264,120.86843
BULLARA,Homestead,-22.68013,114.04031
BULLARDOO,Homestead,-27.85626,115.6739
BULLARING,Place Name,-32.49468,117.74389
BULLAROO HILL,Mountain / Peak / Hill,-25.35575,117.38249
BULLECOURT HILL,Mountain / Peak / Hill,-31.25588,116.25812
BULLEN HILL,Mountain / Peak / Hill,-20.57243,118.57934
BULLEN HILL,Mountain / Peak / Hill,-24.8882,120.61589
BULLFINCH,Place Name,-30.98321,119.11232
BULLGARINA HILL,Mountain / Peak / Hill,-21.19687,120.34943
BULLOCK ROCK,Place Name,-31.62549,117.22782
BULLOO DOWNS,Homestead,-24.00125,119.57211
BULLSBROOK,Place Name,-31.66752,115.99778
BULONG,Place Name,-30.75133,121.7965
BULONG NICKEL PROJECT SITE AND PLANT AREA,Place Name,-30.68771,121.8153
BULVAN,Homestead,-33.73065,118.43682
BULYAIRDIE ROCK,Place Name,-30.58278,122.41127
BULYEE,Place Name,-32.375,117.51395
BULYERANGING HILL,Mountain / Peak / Hill,-31.07716,118.24633
BUNBANDANOO HILL,Mountain / Peak / Hill,-25.59173,122.55191
BUNBURY,Populated Place,-33.32711,115.64137
BUNBURY POWER HOUSE,Place Name,-33.31603,115.66217
BUNBURY TERMINAL,Place Name,-33.34487,115.65789
BUNDABABBA OUTCAMP,Homestead,-25.19376,115.66413
BUNDARRA,Place Name,-28.32236,121.177
BUNDINIE HILL,Mountain / Peak / Hill,-26.73575,117.24662
BUNGALBIN HILL,Mountain / Peak / Hill,-30.39118,119.63395
BUNGARDI,Place Name,-18.17774,125.5972
BUNGARRA POINT,Mountain / Peak / Hill,-29.0365,123.52098
BUNGARRA RIDGE,Place Name,-17.68285,123.52879
BUNGARUN,Place Name,-17.28005,123.73729
BUNGHARRA HILL,Mountain / Peak / Hill,-28.99367,115.52252
BUNGULLA,Place Name,-31.62263,117.59068
BUNICHE,Place Name,-32.99911,118.82786
BUNJIL,Place Name,-29.64937,116.36401
BUNKER BAY,Bay / Inlet / Cove,-33.54022,115.04011
BUNKETCH,Place Name,-30.43494,117.15175
BUNKUN,Place Name,-33.22272,117.67568
BUNMUNNING ROCK,Place Name,-32.66595,117.65461
BUNNAWARRA,Homestead,-28.60869,116.57378
BUNNENGARRA,Place Name,-20.6313,119.23386
BUNNINGUNNA BLUFF,Place Name,-24.41745,119.36651
BUNNY PEAK,Mountain / Peak / Hill,-33.45296,117.42729
BUNQUADINE HILL,Mountain / Peak / Hill,-32.26995,117.93709
BUNSEN CHANNEL,Place Name,-20.40487,115.55363
BUNTINE,Place Name,-29.98549,116.57408
BUNYINBAR ROCK,Place Name,-30.71263,116.24245
BUONGNOO HILL,Mountain / Peak / Hill,-27.69096,117.04215
BURABADJI,Place Name,-31.19681,116.81503
BURAKIN,Place Name,-30.5254,117.17373
BURANDO,Homestead,-33.31456,119.35237
BURBANKS,Place Name,-31.03263,121.13753
BUREKUP,Populated Place,-33.30707,115.81368
BURGES,Place Name,-31.81076,116.78608
BURMIESTER HILL,Mountain / Peak / Hill,-32.50526,120.66921
BURNABBIE,Place Name,-32.1248,126.34257
BURNERBINMAH,Homestead,-28.7851,117.36471
BURNERBURNUNG HILL,Mountain / Peak / Hill,-23.65332,114.54976
BURNGUP,Place Name,-33.01746,118.68935
BURNGUP,Place Name,-32.80483,118.67695
BURNS,Place Name,-31.72914,115.72442
BURNS CROSSING,Place Name,-18.00461,124.15288
BURNSIDE,Homestead,-34.50299,117.79672
BURNT HILL,Mountain / Peak / Hill,-31.08197,116.68789
BURRA ROCK,Homestead,-31.38899,121.19757
BURRACOBBING ROCK,Place Name,-31.25192,118.00543
BURRACOBBING ROCK,Place Name,-31.25117,118.00026
BURRACOPPIN,Place Name,-31.39583,118.47724
BURRAGATTIN ROCK,Place Name,-31.41617,118.34251
BURRAGENUP,Place Name,-33.19733,115.71678
BURRAMUL SAND PATCH,Place Name,-32.29736,126.56676
BURRAN ROCK,Place Name,-31.25846,117.99901
BURRINGURRAH,Place Name,-24.65065,116.93371
BURRUCKGNULING ROCK,Place Name,-32.71991,117.5448
BURRUP PENINSULA,Cape / Headland / Point,-20.56794,116.80876
BURSWOOD,Place Name,-31.96125,115.89991
BURT RANGE,Place Name,-15.80964,128.95982
BURTVILLE,Place Name,-28.77456,122.63915
BURVILL POINT,Mountain / Peak / Hill,-15.2463,128.69348
BUSH BAY,Bay / Inlet / Cove,-25.18189,113.80464
BUSH POINT,Cape / Headland / Point,-18.2173,122.20552
BUSHFIRE HILL,Mountain / Peak / Hill,-15.47433,125.663
BUSHMEAD,Place Name,-31.90093,116.00902
BUSHWALKERS GORGE,Gorge,-22.87022,117.63981
BUSSELTON,Populated Place,-33.65249,115.3455
BUTCHER INLET,Bay / Inlet / Cove,-20.67932,117.19088
BUTLER,Place Name,-31.64626,115.7064
BUTLERS GORGE,Gorge,-23.30953,115.93502
BUTTAH WOOLSHEDS,Place Name,-26.13208,118.48436
BUTTE HILL,Mountain / Peak / Hill,-27.60524,114.20795
BUTTERFLY HILL,Mountain / Peak / Hill,-25.79684,128.41593
BUTTONS GAP,Pass,-15.60837,128.66755
BUTTY HARBOUR,Bay / Inlet / Cove,-33.86604,121.68167
BUTTY HEAD,Cape / Headland / Point,-33.8943,121.64673
BYBERDING HILL,Mountain / Peak / Hill,-30.9947,116.78233
BYEANG ROCK,Place Name,-29.01005,119.83172
BYENUP HILL,Mountain / Peak / Hill,-33.95388,117.30821
BYFORD,Populated Place,-32.22099,116.009
BYRNES HILL,Mountain / Peak / Hill,-16.87601,125.19912
BYRO,Homestead,-26.0779,116.152
BYRO PLAINS,Place Name,-26.0101,115.56363
BYRO PLAINS,Place Name,-25.96826,115.59672
CABLE BEACH,Beach,-17.87442,122.21283
CACHIONALGO HILL,Mountain / Peak / Hill,-31.28197,116.28963
CADOUX,Place Name,-30.7698,117.13811
CAERNARVON HILLS,Place Name,-32.76196,116.85572
CAESAR HILL,Mountain / Peak / Hill,-25.99846,127.50976
CAIGUNA,Place Name,-32.27043,125.48031
CAIRN HILL,Mountain / Peak / Hill,-22.57896,120.14643
CAIRN HILL,Mountain / Peak / Hill,-26.20452,127.99914
CAIRN MINING CENTRE,Place Name,-24.54338,116.0672
CAITUP,Place Name,-33.74324,121.86454
CALADENIA CAVE,Place Name,-31.24615,115.6202
CALANCHINI HILLS,Place Name,-26.85503,123.83592
CALCALING HILL,Mountain / Peak / Hill,-30.87403,118.37229
CALCARRA,Place Name,-31.12775,116.46788
CALCATHARRA,Place Name,-26.27608,116.85769
CALCINE,Place Name,-32.64848,115.93845
CALGATHARRA FLAT,Place Name,-28.24713,117.10284
CALINGIRI,Place Name,-31.09,116.44704
CALISTA,Place Name,-32.24709,115.80321
CALJIE HILL,Mountain / Peak / Hill,-31.7586,116.92712
CALLAGIDDY,Homestead,-25.05076,114.02799
CALLAWA,Homestead,-20.63122,120.50326
CALLCUP DUNES,Place Name,-34.62383,115.86283
CALLCUP HILL,Mountain / Peak / Hill,-34.62546,115.88124
CALLION,Place Name,-30.11682,120.58547
CALLYTHARRA SPRINGS,Homestead,-25.81567,115.37964
CALOOLI,Place Name,-30.96427,121.08376
CALVERT RANGE,Place Name,-23.96623,122.75252
CALWYNYARDAH,Homestead,-17.99733,124.77561
CALYIE HILLS,Place Name,-24.83236,118.675
CAMBALLIN,Place Name,-17.9907,124.19358
CAMBALLIN IRRIGATION AREA,Place Name,-17.97825,124.27833
CAMBAWARRA,Homestead,-34.25149,118.14422
CAMBERATHUNUN HILL,Mountain / Peak / Hill,-28.30689,116.62946
CAMBRAY,Place Name,-33.883,115.68061
CAMBRIDGE GULF,Bay / Inlet / Cove,-14.92353,128.20876
CAMDEN HARBOUR,Bay / Inlet / Cove,-15.48974,124.5828
CAMDEN PENINSULA,Place Name,-15.47684,124.63643
CAMDEN SOUND,Bay / Inlet / Cove,-15.38231,124.41327
CAMEL HILL,Mountain / Peak / Hill,-24.60305,116.38624
CAMEL HUMP,Mountain / Peak / Hill,-28.1984,122.33468
CAMEL PEAKS,Mountain / Peak / Hill,-32.30695,118.82877
CAMEL ROCK,Mountain / Peak / Hill,-22.5684,122.6337
CAMELGOODA HILL,Mountain / Peak / Hill,-18.46884,123.97707
CAMERON HILL,Mountain / Peak / Hill,-27.03418,126.88246
CAMERONS PLAIN,Place Name,-17.80567,125.34455
CAMP ANDERSON,Place Name,-22.0237,117.65593
CAMP CURLEWIS,Place Name,-21.42144,117.15989
CAMP INLET,Bay / Inlet / Cove,-16.9568,122.46882
CAMP ISLAND,Waterbody Island,-24.69318,115.31741
CAMPION,Place Name,-31.02916,118.51351
CAMPION,Place Name,-31.02567,118.48029
CANDLELIGHT,Place Name,-33.23365,117.9873
CANDYUP,Place Name,-34.94053,117.9825
CANE RIVER,Homestead,-22.08914,115.62741
CANEGRASS,Place Name,-30.17576,121.149
CANNA,Mountain / Peak / Hill,-28.94874,115.80143
CANNA,Place Name,-28.89843,115.86499
CANNING GAP,Place Name,-25.61776,120.61307
CANNING HILL,Mountain / Peak / Hill,-28.81576,117.81531
CANNING MILLS,Place Name,-32.07763,116.10599
CANNING VALE,Place Name,-32.07472,115.92179
CANNING VALE BREWERY,Place Name,-32.06608,115.90372
CANNING VALE PRISON,Place Name,-32.10168,115.91956
CANNINGDALE,Place Name,-32.19783,116.11379
CANNINGTON,Place Name,-32.0164,115.93246
CANTERBURY,Place Name,-24.64259,113.92728
CAPE ARID,Cape / Headland / Point,-34.01062,123.152
CAPE BASKERVILLE,Cape / Headland / Point,-17.12676,122.25242
CAPE BELLEFIN,Cape / Headland / Point,-26.01853,113.29927
CAPE BERNIER,Cape / Headland / Point,-14.0005,127.46632
CAPE BERTHOLET,Cape / Headland / Point,-17.24034,122.18819
CAPE BOILEAU,Cape / Headland / Point,-17.66812,122.18454
CAPE BORDA,Cape / Headland / Point,-16.68294,122.74212
CAPE BOSSUT,Cape / Headland / Point,-18.70485,121.61933
CAPE BOUGAINVILLE,Cape / Headland / Point,-13.89629,126.09167
CAPE BOULLANGER,Cape / Headland / Point,-24.99423,113.11863
CAPE BOUVARD,Cape / Headland / Point,-32.68298,115.6071
CAPE BREWSTER,Cape / Headland / Point,-15.10686,124.91039
CAPE BURNEY,Cape / Headland / Point,-28.86754,114.63362
CAPE BURNEY,Place Name,-28.86008,114.64686
CAPE CHATEAURENAUD,Cape / Headland / Point,-14.44105,125.16571
CAPE CLAIRAULT,Cape / Headland / Point,-33.698,114.97591
CAPE COSSIGNY,Cape / Headland / Point,-20.48229,117.94417
CAPE COUTURE,Cape / Headland / Point,-24.98396,113.12081
CAPE CUVIER,Cape / Headland / Point,-24.22359,113.39168
CAPE DOMETT,Cape / Headland / Point,-14.8165,128.38045
CAPE DU BOULAY,Cape / Headland / Point,-18.44004,121.93988
CAPE DUHAMEL,Cape / Headland / Point,-18.84227,121.62893
CAPE DUPUY,Cape / Headland / Point,-20.66641,115.43597
CAPE DUSSEJOUR,Cape / Headland / Point,-14.74056,128.22454
CAPE FARQUHAR,Cape / Headland / Point,-23.63168,113.61557
CAPE FREYCINET,Cape / Headland / Point,-34.09784,114.99203
CAPE FREZIER,Cape / Headland / Point,-18.8667,121.60595
CAPE GOURDON,Cape / Headland / Point,-18.40485,121.98259
CAPE HAMELIN,Cape / Headland / Point,-34.26888,115.03578
CAPE HEIRISSON,Cape / Headland / Point,-26.0184,113.36219
CAPE INSCRIPTION,Cape / Headland / Point,-25.4845,112.96967
CAPE JAUBERT,Cape / Headland / Point,-18.94053,121.55604
CAPE KERAUDREN,Cape / Headland / Point,-19.95691,119.7719
CAPE KNOB,Cape / Headland / Point,-34.53293,119.25777
CAPE LAMBERT,Cape / Headland / Point,-20.59617,117.17227
CAPE LAMBERT,Place Name,-20.59377,117.18179
CAPE LATOUCHE TREVILLE,Cape / Headland / Point,-18.44373,121.83998
CAPE LATREILLE,Cape / Headland / Point,-17.82689,122.20894
CAPE LEEUWIN,Cape / Headland / Point,-34.37556,115.13532
CAPE LEGENDRE,Cape / Headland / Point,-20.35192,116.83731
CAPE LESCHENAULT,Cape / Headland / Point,-31.29336,115.45392
CAPE LESUEUR,Cape / Headland / Point,-25.72348,113.41517
CAPE LEVEQUE,Cape / Headland / Point,-16.38941,122.92568
CAPE LEVILLAIN,Cape / Headland / Point,-25.49853,113.02149
CAPE LONDONDERRY,Cape / Headland / Point,-13.74167,126.96085
CAPE MALOUT,Cape / Headland / Point,-20.71168,115.39778
CAPE MARTEN,Mountain / Peak / Hill,-28.65957,124.49283
CAPE MENTELLE,Cape / Headland / Point,-33.96182,114.98064
CAPE MISSIESSY,Cape / Headland / Point,-19.04346,121.51881
CAPE NATURALISTE,Cape / Headland / Point,-33.53139,115.00481
CAPE PASLEY,Cape / Headland / Point,-33.94105,123.51324
CAPE PERON,Cape / Headland / Point,-32.26905,115.68761
CAPE PERON FLATS,Place Name,-25.45703,113.5009
CAPE PERON NORTH,Cape / Headland / Point,-25.50601,113.50978
CAPE POIVRE,Cape / Headland / Point,-20.80829,115.32317
CAPE POND,Cape / Headland / Point,-14.73422,125.15992
CAPE PRESTON,Cape / Headland / Point,-20.83439,116.20532
CAPE RANGE,Place Name,-22.04491,114.00282
CAPE RANGE,Mountain / Peak / Hill,-21.93024,114.05148
CAPE RANSONNET,Cape / Headland / Point,-26.16047,113.21667
CAPE RICHE,Cape / Headland / Point,-34.60929,118.78127
CAPE RONSARD,Cape / Headland / Point,-24.7567,113.15888
CAPE ROSE,Cape / Headland / Point,-25.74946,113.65785
CAPE RULHIERES,Cape / Headland / Point,-13.90741,127.35436
CAPE ST CRICQ,Cape / Headland / Point,-25.27018,113.07726
CAPE ST LAMBERT,Cape / Headland / Point,-14.30372,127.76196
CAPE TALBOT,Cape / Headland / Point,-13.79102,126.74436
CAPE THOUIN,Cape / Headland / Point,-20.33681,118.18814
CAPE TORRENS,Cape / Headland / Point,-14.98323,125.0883
CAPE VANCOUVER,Cape / Headland / Point,-35.02548,118.18916
CAPE VILLARET,Cape / Headland / Point,-18.32526,122.06575
CAPE VLAMINGH,Cape / Headland / Point,-32.02564,115.45021
CAPE VOLTAIRE,Cape / Headland / Point,-14.26134,125.57594
CAPE WELLINGTON,Cape / Headland / Point,-15.15883,124.83426
CAPE WHISKEY,Cape / Headland / Point,-14.17081,127.64823
CAPEL,Populated Place,-33.55808,115.56278
CAPITELA,Homestead,-30.83722,115.87163
CAPRICORN RANGE,Place Name,-23.4278,117.04618
CAPRICORN ROADHOUSE,Place Name,-23.45295,119.79938
CAPSTAN CAVE,Place Name,-32.02731,125.96867
CAPTAIN ROE ROCK,Place Name,-32.43945,118.6715
CARABOODA,Place Name,-31.60172,115.71516
CARABOODA HILL,Mountain / Peak / Hill,-31.61071,115.73501
CARALYAINE,Place Name,-31.04231,121.87478
CARARANG PENINSULA,Cape / Headland / Point,-26.37214,113.5386
CARATTIS,Homestead,-20.82903,115.36463
CARAVAN CORNER,Place Name,-25.71126,121.69085
CARAWINE GORGE,Gorge,-21.48811,121.03648
CARBADDAMAN PASSAGE,Place Name,-22.42774,113.70948
CARBARUP,Place Name,-34.53848,117.68929
CARBARUP HILL,Mountain / Peak / Hill,-34.55438,117.73728
CARBINE,Homestead,-30.48783,120.92054
CARBLA,Homestead,-26.19968,114.28861
CARBUNUP RIVER,Place Name,-33.69793,115.18925
CARCLEW RANGE,Place Name,-26.63252,122.48373
CARCUNNING ROCK,Place Name,-33.11427,117.40718
CARDABIA,Homestead,-23.10443,113.80362
CARDABIA HILL,Mountain / Peak / Hill,-24.5815,113.71361
CARDABIA PASSAGE,Place Name,-23.06073,113.76552
CARDAWAN HILL,Mountain / Peak / Hill,-24.76741,119.2109
CARDIBAR PEAK,Mountain / Peak / Hill,-23.82813,116.48264
CARDIFF,Place Name,-33.44324,116.23519
CARDIMINUP,Place Name,-34.40174,119.29135
CARDINENUP HILL,Mountain / Peak / Hill,-34.0316,118.73162
CARDINIA,Place Name,-28.80237,121.6132
CARDINIA HILL,Mountain / Peak / Hill,-28.79106,121.62908
CARDO OUTSTATION,Homestead,-22.24911,116.13222
CARDUP,Place Name,-32.24593,115.99813
CAREY DOWNS,Homestead,-25.61275,115.46068
CAREY PARK,Place Name,-33.35748,115.66711
CARGANNOCKING HILL,Mountain / Peak / Hill,-32.72889,118.14398
CARGONNUP,Place Name,-33.76915,116.88177
CARILLA,Place Name,-32.03428,116.13229
CARINNA HILL,Mountain / Peak / Hill,-23.52005,115.88987
CARINYAH,Place Name,-32.09468,116.17852
CARLAMINDA,Homestead,-28.27665,116.72091
CARLAWEELBAN HILL,Mountain / Peak / Hill,-25.86532,114.31902
CARLECATUP,Place Name,-33.83084,117.30777
CARLIBUIN ROCK,Place Name,-27.2326,117.3966
CARLINDIE,Homestead,-20.64049,119.24212
CARLINDIE HILL,Mountain / Peak / Hill,-20.67724,119.10367
CARLINGUP,Place Name,-33.5457,120.18676
CARLISLE,Place Name,-31.98045,115.91062
CARLISLE HEAD,Cape / Headland / Point,-16.72275,123.13411
CARLTON GORGE,Gorge,-16.02281,128.70152
CARLTON HILL,Homestead,-15.48555,128.5343
CARLTON PLAIN,Place Name,-15.51405,128.43416
CARLYARN ROCK,Place Name,-30.0874,117.45564
CARMEL,Place Name,-32.01913,116.09401
CARNAMAH,Populated Place,-29.6887,115.88595
CARNARVON,Populated Place,-24.88073,113.6594
CARNARVON RANGE,Place Name,-25.26006,120.70509
CARNCUP HILL,Mountain / Peak / Hill,-33.79259,123.27305
CARNE HILL,Mountain / Peak / Hill,-29.05359,123.32232
CARNEGIE,Homestead,-25.79658,122.9755
CARNEGIE RANGE,Place Name,-24.57529,128.03571
CARNEY,Place Name,-28.58374,114.73738
CARNILYA HILL,Mountain / Peak / Hill,-31.04298,121.81917
CARNOT BAY,Bay / Inlet / Cove,-17.13865,122.27992
CARNOT PEAK,Mountain / Peak / Hill,-17.0784,122.36415
CARNOT SPRINGS,Place Name,-17.17253,122.31778
CAROLINE RANGE,Place Name,-16.13104,126.21614
CAROLINE RANGES,Place Name,-16.10859,125.89808
CAROLYN VALLEY,Place Name,-18.65739,125.00625
CARON,Place Name,-29.57513,116.31864
CAROOIL BLUFF,Mountain / Peak / Hill,-25.32912,122.59735
CAROWLYME HILL,Mountain / Peak / Hill,-31.03077,121.91978
CARPENTER GAP,Pass,-17.44084,125.00853
CARR BOYD RANGES,Place Name,-15.94943,128.65506
CARRABIN,Place Name,-31.39199,118.66993
CARRACHING,Place Name,-32.60587,117.10097
CARRANDIBBY RANGE,Place Name,-25.79241,115.5935
CARRANYA,Homestead,-19.23099,127.77233
CARRARANG,Homestead,-26.46275,113.50787
CARR-BOYD ROCKS,Place Name,-28.1751,124.42117
CARRIBIN ROCK,Place Name,-31.35366,117.48895
CARRINGTON,Homestead,-34.03783,117.34066
CARSON CROSSING,Place Name,-15.13116,126.72301
CARSON ESCARPMENT,Place Name,-15.16916,126.73964
CARSON ESCARPMENT,Place Name,-14.83623,126.81812
CARSON RIVER,Homestead,-14.48682,126.77212
CARTAMINIA POINT,Cape / Headland / Point,-19.99451,119.41516
CARTAMULLIGAN ROCK,Place Name,-31.48494,116.75479
CARTIS,Place Name,-33.66548,115.58782
CARTUBING,Place Name,-30.82268,117.80848
CARYDALE,Place Name,-33.59384,115.83525
CASCADE,Place Name,-33.4732,121.07436
CASCADE BAY,Bay / Inlet / Cove,-16.5702,123.4478
CASEY RANGE,Place Name,-19.60748,126.89742
CASHEL ROCK,Place Name,-27.55622,115.81103
CASHMERE DOWNS,Homestead,-28.96894,119.5686
CASSIDY HILL,Mountain / Peak / Hill,-26.21723,126.87793
CASTLE BAY,Bay / Inlet / Cove,-33.57315,115.08972
CASTLE HILL,Mountain / Peak / Hill,-31.40299,116.11354
CASTLE POINT,Cape / Headland / Point,-25.12835,113.11174
CASTLE ROCK,Place Name,-34.69646,117.92158
CASTLEREAGH HILL,Mountain / Peak / Hill,-16.97698,127.95567
CASUARINA,Place Name,-32.23704,115.86009
CASUARINA ISLES,Place Name,-35.05946,116.73204
CASUARINA PRISON,Place Name,-32.24214,115.87626
CAT CAMP,Place Name,-31.82345,120.3073
CAT CAMP,Place Name,-28.54486,123.11832
CATABY,Homestead,-33.27164,121.09656
CATABY,Place Name,-30.74035,115.52234
CATAMARAN BAY,Bay / Inlet / Cove,-16.46955,122.99321
CATAMOURI HILL,Mountain / Peak / Hill,-30.25777,115.29871
CATHEDRAL GORGE,Gorge,-23.27119,119.6272
CATHERINE BEACH,Beach,-31.99356,115.50099
CATHERINE POINT,Cape / Headland / Point,-32.08451,115.75133
CATSPAW HILLS,Mountain / Peak / Hill,-20.14582,126.56442
CATTERICK,Place Name,-33.86622,116.12557
CATTLE GORGE,Gorge,-20.54549,120.25726
CATTLE WELL,Place Name,-25.59253,113.456
CAULIFLOWER CAVE,Place Name,-31.5535,115.69367
CAVE HILL,Mountain / Peak / Hill,-22.11756,119.96641
CAVE HILL,Mountain / Peak / Hill,-26.06383,119.0895
CAVE HILL,Mountain / Peak / Hill,-31.66341,121.23027
CAVE HILL,Mountain / Peak / Hill,-31.9605,116.79435
CAVE POINT,Cape / Headland / Point,-35.12283,117.89975
CAVE POINT,Cape / Headland / Point,-33.95148,119.9859
CAVE SPRING GAP,Pass,-15.54591,128.80392
CAVE SPRING RANGE,Place Name,-15.54924,128.82531
CAVENAGH RANGE,Place Name,-26.17316,128.00197
CAWSTON HILL,Mountain / Peak / Hill,-14.83887,128.05501
CECILIA ISLANDS,Place Name,-16.33676,123.56989
CEDAR HILL,Mountain / Peak / Hill,-15.11595,128.13017
CEMENT HILL,Mountain / Peak / Hill,-26.32587,118.42123
CENTIPEDE HILL,Mountain / Peak / Hill,-22.58021,114.26392
CERVANTES,Populated Place,-30.49611,115.06716
CHABJUWARDOO BAY,Bay / Inlet / Cove,-22.9548,113.81779
CHADOORA,Place Name,-32.76268,116.2203
CHALBY CHALBY,Place Name,-24.80428,115.91139
CHALK HILL,Mountain / Peak / Hill,-32.53393,118.98254
CHALLA,Homestead,-28.28071,118.31011
CHALLIS,Place Name,-32.12693,116.01216
CHALLY,Place Name,-28.41956,114.65461
CHAMP DE MARS,Place Name,-26.16027,128.96819
CHAMPAGNY ISLANDS,Place Name,-15.30595,124.21724
CHAMPION BAY,Bay / Inlet / Cove,-28.76069,114.6018
CHANDALA,Place Name,-31.53473,115.95859
CHANNEL POINT,Cape / Headland / Point,-34.89883,118.42668
CHAPMAN,Place Name,-28.73164,114.62923
CHAPMAN HILL,Mountain / Peak / Hill,-33.80535,115.33359
CHAPMAN HILL,Place Name,-33.77567,115.31703
CHARLIES KNOB,Mountain / Peak / Hill,-25.04821,124.98398
CHARLOTTE POINT,Cape / Headland / Point,-31.99425,115.49777
CHARNOCKITE FLATS,Place Name,-26.02905,128.73705
CHAROO,Place Name,-16.17833,125.49368
CHATING YEGENUP,Place Name,-33.95021,123.23511
CHATTUR BAY,Bay / Inlet / Cove,-16.91895,123.15493
CHEADANUP,Place Name,-34.17361,119.5782
CHEADANUP CLIFFS,Place Name,-34.17366,119.58432
CHEANGWA HILL,Mountain / Peak / Hill,-27.49846,116.38885
CHEARIE HILLS,Place Name,-23.22104,115.25737
CHEDDA CLIFFS,Place Name,-17.22352,124.62918
CHEEARRA HILL,Mountain / Peak / Hill,-21.41187,118.23796
CHEELA OUTCAMP,Place Name,-22.95906,116.84839
CHEETARA ROCK,Mountain / Peak / Hill,-22.55046,115.16162
CHEETUP HILL,Mountain / Peak / Hill,-33.86979,122.46007
CHELSEA,Homestead,-30.62201,115.77784
CHERIDUP,Homestead,-34.08383,118.28487
CHERRABUN,Homestead,-18.91299,125.52527
CHERRY ISLAND,Waterbody Island,-32.19125,121.73665
CHERRYUP,Place Name,-34.97151,117.44064
CHESTER PASS,Pass,-34.37949,118.12163
CHEYENNE,Homestead,-34.89333,117.10345
CHEYNE BAY,Bay / Inlet / Cove,-34.55346,118.77809
CHEYNE BEACH,Place Name,-34.88444,118.40679
CHEYNE HEAD,Cape / Headland / Point,-35.01459,117.9722
CHEYNE POINT,Cape / Headland / Point,-33.95179,122.51083
CHICHESTER DOWNS,Place Name,-21.7178,117.12309
CHICHESTER RANGE,Place Name,-22.10208,118.87532
CHICHESTER RANGE,Place Name,-22.02822,118.33517
CHICHESTER RANGE,Place Name,-21.96577,118.54015
CHICHESTER RANGE,Place Name,-21.72803,117.9157
CHIDDARCOOPING HILL,Mountain / Peak / Hill,-30.90361,118.67914
CHIDLOW,Populated Place,-31.86176,116.26926
CHIFLEY SIDING,Place Name,-30.99767,122.83962
CHIGGARRIE ROCK,Place Name,-27.31515,117.08842
CHILE CREEK,Place Name,-16.54941,122.86904
CHILE HEAD,Cape / Headland / Point,-16.50704,122.85835
CHILLICUP HILLS,Place Name,-33.9097,117.6072
CHILLINUP,Homestead,-34.34334,118.62956
CHILLINUP,Place Name,-34.33784,118.62686
CHILPADA CHARRA HILL,Mountain / Peak / Hill,-20.09399,126.87057
CHIMINGADGI HILL,Mountain / Peak / Hill,-21.05746,120.27734
CHIN CHIN ROCKS,Place Name,-28.24232,117.48051
CHINAMAN ROCK,Place Name,-28.00142,116.80709
CHINAMANS ROCK,Place Name,-27.709,114.15833
CHINGAH HILLS,Place Name,-31.67963,118.45496
CHINGALING ROCK,Place Name,-29.5112,120.35006
CHINGARRUP HILL,Mountain / Peak / Hill,-34.23163,118.85789
CHINOCUP,Place Name,-33.53254,118.37835
CHITELUP HILL,Mountain / Peak / Hill,-34.58437,116.82212
CHITIBIN,Place Name,-31.52454,116.68991
CHITTERBERRIN,Place Name,-31.90961,118.42394
CHITTERING,Place Name,-31.4701,116.10119
CHOADINGMANNA,Place Name,-23.60566,115.15562
CHOALLIE ROCK,Place Name,-27.23659,117.38824
CHOCOLATE HILL,Mountain / Peak / Hill,-21.368,119.37186
CHOOWEELARRA ROCK,Mountain / Peak / Hill,-27.54269,120.70276
CHORKERUP,Place Name,-34.83711,117.68921
CHORKERUP FARM,Homestead,-34.83519,117.69427
CHOWILLA DOLINE,Place Name,-31.64415,128.4834
CHRISTIE CROSSING,Place Name,-22.42964,121.21818
CHRISTINE POINT,Cape / Headland / Point,-17.19532,123.6274
CHRISTMAS CREEK,Homestead,-18.87567,125.91979
CHRISTMAS HILL,Mountain / Peak / Hill,-28.00887,114.32712
CHUDLEIGH,Homestead,-34.05481,117.93165
CHULAAR,Mountain / Peak / Hill,-28.96559,116.96795
CHURCH HILL,Mountain / Peak / Hill,-18.36491,122.04743
CHUTAWALAKIN HILL,Mountain / Peak / Hill,-30.9206,118.72833
CHUTURULLUP,Place Name,-34.52206,117.0631
CIRCLE VALLEY,Place Name,-33.06474,121.6786
CIRCUS BEACH,Beach,-35.0304,116.71609
CIRCUS HILL,Mountain / Peak / Hill,-26.06977,128.22569
CITADEL HILL,Mountain / Peak / Hill,-20.4314,122.0984
CITY BEACH,Beach,-31.93667,115.75407
CITY WEST,Place Name,-31.94454,115.84547
CLACKLINE,Place Name,-31.72368,116.50134
CLAISEBROOK,Place Name,-31.94987,115.87064
CLAPP RIDGE,Place Name,-19.86689,124.97846
CLARA HILL,Mountain / Peak / Hill,-16.90319,124.49291
CLARE DOWNS,Homestead,-33.59646,120.99104
CLAREMONT,Place Name,-31.98132,115.78136
CLARET ISLANDS,Place Name,-15.6919,124.38221
CLARKE ISLAND,Waterbody Island,-34.94298,116.4961
CLARKSON,Place Name,-31.68991,115.71636
CLAYMORE,Place Name,-33.72966,115.67887
CLAYTUP,Place Name,-33.5914,120.1299
CLEAN SKIN POCKET,Place Name,-17.0353,126.65988
CLEAR HILL,Mountain / Peak / Hill,-33.54247,116.10931
CLEAR HILL,Mountain / Peak / Hill,-31.57202,116.54221
CLEARY,Place Name,-30.43454,117.64616
CLEARY ROCKS,Place Name,-30.37803,117.6547
CLELAND ROCK,Place Name,-21.2352,119.18496
CLEVER MARY HILLS,Place Name,-24.83757,116.77546
CLIANTHUS FLAT,Place Name,-31.01591,121.46037
CLIFF HEAD,Cape / Headland / Point,-35.18802,117.89617
CLIFF HEAD,Cape / Headland / Point,-29.53098,114.98804
CLIFF POINT,Cape / Headland / Point,-25.23499,113.07111
CLIFF POINT,Cape / Headland / Point,-16.86019,122.54397
CLIFFY HEAD,Cape / Headland / Point,-35.01461,116.4834
CLIFFY POINT,Cape / Headland / Point,-14.33596,126.04163
CLIFTON PARK,Place Name,-33.30837,115.70751
CLIFTONDALE,Homestead,-34.11874,117.25286
CLINKER HILL,Mountain / Peak / Hill,-30.88119,121.76248
CLOVER DOWNS,Homestead,-28.88901,121.2982
CLUTTERBUCK HILLS,Mountain / Peak / Hill,-24.57912,126.28511
CLYDE HILL,Mountain / Peak / Hill,-33.35189,122.99723
COAL POINT,Cape / Headland / Point,-34.9358,116.41931
COALMINE BEACH,Beach,-34.99094,116.73318
COARIN ROCK,Place Name,-31.93813,117.75353
COAST HILL,Mountain / Peak / Hill,-24.7774,113.65125
COAST HILL,Mountain / Peak / Hill,-14.95946,128.06212
COATES,Place Name,-31.75673,116.40289
COBBLER POOL,Place Name,-31.56254,116.32591
COBEN ROCK,Place Name,-33.63553,117.0338
COBRA,Homestead,-24.19967,116.4736
COBURN,Homestead,-26.69632,114.31917
COBURN,Place Name,-24.81697,113.84044
COCKATOO,Place Name,-16.08707,123.5945
COCKATOO CAMP,Place Name,-33.57696,121.33367
COCKBURN EAST,Place Name,-32.12097,115.80301
COCKBURN NORTH,Place Name,-32.11748,115.79727
COCKBURN RANGES,Place Name,-15.80018,128.0206
COCKBURN SOUND,Bay / Inlet / Cove,-32.19739,115.72495
COCKBURN SOUTH,Place Name,-32.12621,115.79879
COCKERNABAR ROCKS,Place Name,-28.84221,117.74921
COCKLEBIDDY CAVE,Place Name,-31.96523,125.91651
COCKLEBIDDY MOTEL,Place Name,-32.03893,126.09647
COCKMAN BLUFF,Mountain / Peak / Hill,-31.60967,116.03852
COCONUT WELL,Homestead,-17.82088,122.218
CODGANOLLOP HILL,Mountain / Peak / Hill,-33.69089,116.78285
CODJATOTINE,Place Name,-32.6459,116.82618
COFFIN ROCK,Place Name,-32.07174,116.59962
COGHLAN HILL,Mountain / Peak / Hill,-15.0513,128.07042
COGLA DOWNS,Homestead,-27.43177,118.92567
COGLIA WELL OUTCAMP,Homestead,-29.07118,123.03714
COHN HILL,Mountain / Peak / Hill,-26.10163,127.63504
COHN HILL,Mountain / Peak / Hill,-25.29278,120.3523
COLAC SHOALS,Place Name,-17.35143,123.59246
COLD HARBOUR,Place Name,-31.8938,116.77693
COLLANILLING ROCKS,Place Name,-33.1863,117.57053
COLLEGE GROVE,Place Name,-33.37453,115.64757
COLLETT CLIFFS,Place Name,-18.27123,126.40716
COLLGAR,Place Name,-31.55429,118.35621
COLLIE,Populated Place,-33.36206,116.15617
COLLIE BURN,Place Name,-33.39435,116.18826
COLLIE CARDIFF,Place Name,-33.42868,116.20295
COLLIE HEAD,Cape / Headland / Point,-32.24555,115.69123
COLLIE PLAIN,Place Name,-33.21241,116.22869
COLLIE POWER STATION,Place Name,-33.34228,116.26317
COLLIER,Place Name,-33.83619,121.86062
COLLIER BAY,Bay / Inlet / Cove,-16.21913,124.256
COLLIER RANGE,Place Name,-24.70587,119.34511
COLLINGWOOD,Place Name,-34.91939,118.18395
COLLINS,Place Name,-34.41579,116.09457
COLLINS COVE,Bay / Inlet / Cove,-16.08987,123.59421
COLLINS HILL,Mountain / Peak / Hill,-31.83821,116.8961
COLLINS POINT,Cape / Headland / Point,-32.18215,115.66345
COLLISON RANGE,Place Name,-14.7014,127.46579
COLLURABBIE HILLS,Place Name,-26.80846,122.47584
COLOMBO HILLS,Place Name,-18.26453,126.57578
COLORADO OUTCROP,Place Name,-19.72445,122.07833
COLPOYS POINT,Cape / Headland / Point,-32.22683,115.69937
COMET BAY,Bay / Inlet / Cove,-32.43958,115.72676
COMET HILL,Mountain / Peak / Hill,-31.02429,121.07179
COMET RANGE,Place Name,-27.41113,128.51957
COMET VALE,Place Name,-29.93177,121.12337
COMIDUP HILL,Mountain / Peak / Hill,-33.82313,116.36129
COMITUN ROCK,Place Name,-31.79732,118.09261
COMPASS HILL,Mountain / Peak / Hill,-16.65925,123.5966
COMPTON HILLS,Place Name,-24.04891,128.08462
COMPTON PINNACLE,Mountain / Peak / Hill,-22.38541,122.21373
CONDINGUP,Place Name,-33.74856,122.5351
CONDINGUP PEAK,Mountain / Peak / Hill,-33.75976,122.55055
CONDINI LANDING,Place Name,-19.98967,119.31488
CONDINING HILL,Mountain / Peak / Hill,-33.22803,117.30827
CONDINUP,Place Name,-33.77064,116.51008
CONDREN PINNACLES,Place Name,-20.10033,127.63349
CONE BAY,Bay / Inlet / Cove,-16.47086,123.5577
CONE HILL,Mountain / Peak / Hill,-16.48248,123.66556
CONE HILL,Mountain / Peak / Hill,-14.81592,128.39036
CONE MOUNTAIN,Mountain / Peak / Hill,-14.19216,126.45191
CONGELIN,Place Name,-32.84489,116.88991
CONGLOMERATE POINT,Mountain / Peak / Hill,-25.50438,126.74175
CONGOO,Place Name,-28.23834,117.53432
CONGOO HILL,Mountain / Peak / Hill,-28.26357,117.55222
CONICAL HILL,Mountain / Peak / Hill,-24.22009,118.96393
CONICAL HILL,Mountain / Peak / Hill,-25.89573,116.81195
CONICAL HILL,Mountain / Peak / Hill,-15.54632,124.93134
CONICAL HILL,Mountain / Peak / Hill,-25.7202,121.01704
CONICAL PEAK,Mountain / Peak / Hill,-17.89635,126.49727
CONICAL ROCK,Place Name,-33.32379,117.88721
CONNAUGHTON HILLS,Place Name,-22.69977,122.50539
CONNOLLY,Place Name,-31.28452,121.30865
CONNOLLY BASIN,Place Name,-23.53479,124.76081
CONNORS GAP,Pass,-17.86412,126.32682
CONNORS VALLEY,Place Name,-17.83076,126.25948
CONRAKING,Place Name,-32.44899,118.39423
CONSPICUOUS CLIFF,Place Name,-35.04042,116.84733
CONSTANCE HEADLAND,Place Name,-24.02503,123.07867
CONTENTION HEIGHTS,Place Name,-23.00164,126.75852
CONTENTION HEIGHTS,Place Name,-22.90066,126.84407
CONTINE,Place Name,-32.85679,116.969
CONTINE HILL,Mountain / Peak / Hill,-32.88273,117.00612
CONWAY PATCH,Place Name,-31.83446,118.22985
COOALLING HILL,Mountain / Peak / Hill,-32.0931,117.49844
COODANUP,Place Name,-32.5621,115.75031
COODARDO GAP,Pass,-23.8058,116.63857
COODARDY,Homestead,-27.25426,117.65369
COODARIN,Place Name,-31.95202,118.21916
COODIMIRRIE HILL,Mountain / Peak / Hill,-15.08317,126.74113
COODOONGA,Place Name,-27.53828,115.80429
COOGEE,Place Name,-32.11127,115.76616
COOGLEGONG MINING CENTRE,Place Name,-21.54901,119.35599
COOKE BLUFF HILL,Mountain / Peak / Hill,-20.95216,119.37578
COOKE POINT,Cape / Headland / Point,-20.29948,118.63958
COOKERABINGE OUTCAMP,Place Name,-23.44,114.11729
COOKERNUP,Place Name,-32.99688,115.89032
COOKES HILL,Mountain / Peak / Hill,-20.75487,118.68051
COOKES HILL,Mountain / Peak / Hill,-29.08204,115.85143
COOKINBIN,Place Name,-31.00357,118.26164
COOLADAR HILL,Mountain / Peak / Hill,-28.60128,117.90423
COOLAGEE HILL,Mountain / Peak / Hill,-29.45692,117.63719
COOLALLA HILL,Mountain / Peak / Hill,-25.5868,122.55028
COOLALOO HILL,Mountain / Peak / Hill,-28.30337,117.80504
COOLAMANINU HILL,Mountain / Peak / Hill,-28.75306,118.24045
COOLAMOOKA HILL,Mountain / Peak / Hill,-27.04537,116.7952
COOLANGATTA,Homestead,-34.81824,118.01511
COOLARING HILL,Mountain / Peak / Hill,-32.0527,116.65662
COOLAWANYAH,Homestead,-21.80222,117.80498
COOLCALALAYA,Homestead,-27.52642,115.05845
COOLETHA HILL,Mountain / Peak / Hill,-21.94063,118.87907
COOLGARDIE,Populated Place,-30.95359,121.16598
COOLIMBA,Place Name,-29.85805,114.97903
COOLINBAR HILL,Mountain / Peak / Hill,-25.21431,118.00803
COOLINGBAH OUTCAMP,Place Name,-23.74982,115.65943
COOLLILEE HILL,Mountain / Peak / Hill,-24.70161,113.68458
COOLOONGUP,Place Name,-32.30268,115.7467
COOLTHAN,Place Name,-24.13243,113.958
COOLUP,Place Name,-32.74133,115.87423
COOLYARBUP,Place Name,-34.61121,115.83192
COOLYUN HILL,Mountain / Peak / Hill,-26.19709,115.80975
COOMALBIDGUP,Place Name,-33.72298,121.3642
COOMALDANNERUP,Place Name,-34.10082,118.49505
COOMALLO HILL,Mountain / Peak / Hill,-30.15781,115.40081
COOMBA CREEK,Place Name,-21.62129,119.55658
COOMBELOONA ROCK,Place Name,-27.16922,117.59418
COOMBERDALE,Place Name,-30.46577,116.0374
COOMPACOOMPERA HILL,Mountain / Peak / Hill,-28.45417,117.01714
COOMPERTUP,Place Name,-33.81334,119.46031
COON SIDING,Place Name,-21.75605,118.87587
COONABILDIE BLUFF,Mountain / Peak / Hill,-25.76563,122.68533
COONABILDIE RANGE,Place Name,-25.67355,122.68832
COONANA,Place Name,-31.02463,123.15385
COONANA HILL,Mountain / Peak / Hill,-31.033,123.06974
COONANTHA,Place Name,-24.84194,115.39941
COONAWA,Place Name,-28.33673,115.39974
COONDAWA OUTCAMP,Place Name,-26.84393,116.46355
COONDEWANNA HILL,Mountain / Peak / Hill,-23.11333,118.78111
COONDLE,Place Name,-31.47805,116.44092
COONDOO,Place Name,-24.71912,115.57112
COONDOO OUTCAMP,Place Name,-24.81901,115.57983
COONDOONDOO HILLS,Place Name,-24.80847,116.87259
COONGAN,Place Name,-20.68521,119.66009
COONGAN BELT,Place Name,-21.79625,119.65909
COONGARRACOODOO,Place Name,-24.93818,115.26666
COONJA,Place Name,-28.143,115.62225
COOPER HILLS,Place Name,-27.3618,126.37119
COORALYA,Homestead,-24.44166,114.07941
COORANCOOPING HILL,Mountain / Peak / Hill,-30.86058,118.68719
COORARINEE HILL,Mountain / Peak / Hill,-25.65646,122.80198
COOR-DE-WANDY,Homestead,-25.59265,115.97247
COOR-DE-WANDY HILL,Mountain / Peak / Hill,-25.7134,116.1883
COORINGABBA HILL,Mountain / Peak / Hill,-25.59308,122.96528
COORINYUP HILL,Mountain / Peak / Hill,-33.88899,117.47719
COOROTHOO ISLAND,Waterbody Island,-24.30655,115.53285
COOROW,Place Name,-29.88165,116.02392
COORUNGCOORANA,Place Name,-20.90473,118.34763
COOTAMARRA HILL,Mountain / Peak / Hill,-28.76219,117.47089
COOTANING HILL,Mountain / Peak / Hill,-31.02211,118.34607
COOTARRING ROCK,Place Name,-33.09441,117.49035
COPPERDIE HILL,Mountain / Peak / Hill,-29.53046,117.85905
COPPERFIELD MINING CENTRE,Place Name,-29.10144,120.45828
COPPERMINE HILLS,Place Name,-21.06658,117.82299
COPPIN GAP,Pass,-20.88282,120.12006
CORAL BAY,Populated Place,-23.14311,113.77145
CORAMUP HILL,Mountain / Peak / Hill,-33.76943,121.92324
CORBOY CAIRN,Mountain / Peak / Hill,-21.73633,119.678
CORDERING,Place Name,-33.49836,116.66263
CORDUROYED CROSSING,Place Name,-25.61101,120.52579
CORINTHIA,Place Name,-31.12106,119.24343
CORK TREE HILL,Mountain / Peak / Hill,-28.66656,120.28909
CORNAMBIE POINT,Cape / Headland / Point,-16.86126,123.17245
CORNELIA RANGE,Place Name,-24.71208,122.74551
CORNER COVE,Bay / Inlet / Cove,-34.3632,119.52309
CORNIJUP,Place Name,-33.86387,122.43941
CORONATION BEACH,Beach,-28.55024,114.56376
CORONATION ISLANDS,Place Name,-15.04966,124.89154
CORONATION ISLANDS,Place Name,-14.93945,124.89552
CORONATION PASS,Place Name,-28.87424,113.97947
CORRIGIN,Populated Place,-32.33383,117.87137
CORRIGIN ROCK,Place Name,-32.3253,117.88828
CORRIGING HILL,Mountain / Peak / Hill,-32.05996,117.05245
CORROBOREE VALLEY,Place Name,-23.13416,127.38328
CORUNNA DOWNS,Homestead,-21.46169,119.84282
COSMO NEWBERY,Place Name,-27.99476,122.89498
COSMO NEWBERY HILL,Mountain / Peak / Hill,-27.95457,122.89501
COSSACK,Place Name,-20.67688,117.18745
COSSIGNY HILL,Mountain / Peak / Hill,-20.47112,118.00071
COTMISE HILL,Mountain / Peak / Hill,-28.89062,116.60328
COTTESLOE,Place Name,-31.99591,115.75876
COUCHMAN RANGE,Place Name,-15.19406,126.47347
COUCHMAN REPEATER STATION,Place Name,-15.25213,126.27619
COULOMB POINT,Cape / Headland / Point,-17.35545,122.15049
COUNTRY DOWNS,Homestead,-17.27753,122.57027
COURIN HILL,Mountain / Peak / Hill,-28.21168,116.42485
COURTENAY HEAD,Cape / Headland / Point,-20.50399,116.69138
COW AND CALF HILLS,Mountain / Peak / Hill,-24.10521,115.02442
COWALLA HILL,Mountain / Peak / Hill,-30.62971,115.62754
COWALLA PEAK,Mountain / Peak / Hill,-30.34875,115.27406
COWAN HILL,Mountain / Peak / Hill,-31.68544,121.81725
COWARAMUP,Place Name,-33.85182,115.10256
COWARAMUP BAY,Bay / Inlet / Cove,-33.86084,114.98008
COWARAMUP POINT,Cape / Headland / Point,-33.86484,114.97773
COWARNA DOWNS,Homestead,-31.00933,122.35564
COWBOY CAIRN,Mountain / Peak / Hill,-21.80908,119.85948
COWCHER,Place Name,-33.4128,116.36859
COWCOWING,Place Name,-30.99875,117.454
COWDEROY HILL,Mountain / Peak / Hill,-27.80134,123.65038
COWDERUP,Place Name,-33.81456,119.95034
COWERUP,Place Name,-33.83927,120.79488
COWRA LINE CAMP,Place Name,-22.35763,119.00493
COX BAY,Bay / Inlet / Cove,-32.58158,115.6722
COYANARUP PEAK,Mountain / Peak / Hill,-34.38497,118.24935
COYERBOOROO,Place Name,-24.86933,115.2495
COYRECUP,Place Name,-33.66467,117.82546
CRAIG,Place Name,-29.33324,122.14778
CRAIGGIEMORE,Place Name,-28.65025,122.41587
CRAMPHORNE,Place Name,-31.80334,118.56054
CRAMPTON,Place Name,-28.96692,114.78372
CRANBROOK,Populated Place,-34.29756,117.55178
CRANE POINT,Mountain / Peak / Hill,-28.33284,123.19445
CRAVEN ORD HILL,Mountain / Peak / Hill,-18.84666,124.29404
CRAWFORD BAY,Bay / Inlet / Cove,-16.50628,123.48175
CRAYFISH BAY,Bay / Inlet / Cove,-26.34563,113.29652
CREDO,Homestead,-30.46684,120.82617
CRESENT RIDGE,Mountain / Peak / Hill,-20.68133,126.41424
CRESTED HILL,Mountain / Peak / Hill,-32.08051,116.82236
CROCKETT RANGE,Place Name,-24.24912,128.00999
CROCODILE GORGE,Gorge,-18.01414,128.20366
CROCODILE GORGE,Gorge,-17.46321,126.78024
CROCODILE HILL,Mountain / Peak / Hill,-17.21723,127.42896
CROESUS PLANT,Place Name,-30.75149,121.49391
CROMER CONE,Mountain / Peak / Hill,-23.51329,123.31755
CRONIN HILLS,Mountain / Peak / Hill,-23.23609,123.37084
CROOKED BROOK,Place Name,-33.43589,115.75073
CROSSLAND HILL,Mountain / Peak / Hill,-26.18724,117.7521
CROSSMAN,Place Name,-32.7807,116.5956
CROW CAVE HILL,Mountain / Peak / Hill,-28.70739,123.74501
CROW ROCK,Place Name,-29.61474,120.24867
CROWHURST GORGE,Gorge,-18.26787,126.41321
CROWN HEAD,Mountain / Peak / Hill,-20.2606,126.54326
CROWS NEST,Mountain / Peak / Hill,-31.56851,116.73035
CROWS NEST HILL,Mountain / Peak / Hill,-31.56519,116.72867
CROYDON OUTSTATION,Homestead,-21.11723,117.80602
CRYSTAL CAVE,Place Name,-31.54712,115.69114
CRYSTAL HEAD,Cape / Headland / Point,-14.46979,125.84971
CRYSTAL ROCK,Mountain / Peak / Hill,-28.59267,114.79004
CRYSTAL SPRINGS,Place Name,-34.98368,116.60569
CSIRO EJAH RESEARCH STATION,Place Name,-26.41753,117.19763
CUBALLING,Populated Place,-32.81964,117.17583
CUBBINE HILLS,Place Name,-31.89366,117.36108
CUDDINGWARRA HILL,Mountain / Peak / Hill,-27.37718,117.77117
CUDDUARUP,Homestead,-34.529,117.30587
CUDDYWOODY HILL,Mountain / Peak / Hill,-30.70656,115.70887
CUE,Populated Place,-27.42395,117.89739
CULBARTING ROCK,Place Name,-31.40817,117.02934
CULBIN,Place Name,-33.16755,116.84509
CULGABBEROO FLAT,Place Name,-28.18331,117.38022
CULGATHERRA,Place Name,-28.19868,116.21256
CULHAM,Place Name,-31.42095,116.4722
CULLACABARDEE,Place Name,-31.82193,115.8766
CULLALLA,Place Name,-31.28337,116.03831
CULLCULLI,Homestead,-27.03861,118.37226
CULLCULLI HILL,Mountain / Peak / Hill,-27.04158,118.38635
CUMBEJUN JUNCTION,Place Name,-16.37221,125.43435
CUMMININ ROCK,Place Name,-32.08114,118.23898
CUMMINS RANGE,Place Name,-19.2436,126.99868
CUNARING HILL,Mountain / Peak / Hill,-32.41561,116.8025
CUNCUDGERIE HILL,Mountain / Peak / Hill,-21.00949,121.52314
CUNDALINE GAP,Pass,-20.57532,120.20986
CUNDEELEE,Place Name,-30.72293,123.42232
CUNDERDIN,Populated Place,-31.65398,117.23374
CUNDERDIN HILL,Mountain / Peak / Hill,-31.66695,117.23163
CUNDERIN HILL,Mountain / Peak / Hill,-30.62596,118.48662
CUNDINUP,Place Name,-33.80827,115.79359
CUNDLEBAR,Homestead,-23.86356,120.16231
CUNMAGNUNNA HILL,Mountain / Peak / Hill,-21.74943,118.87754
CUNNINGHAM HILL,Mountain / Peak / Hill,-32.42958,118.70803
CUNNINGHAM POINT,Cape / Headland / Point,-16.68844,123.13817
CUNYU WOOLSHED,Place Name,-25.81016,120.14408
CURARA,Place Name,-28.56975,115.57928
CURARA,Place Name,-32.80993,116.26823
CURBUR,Homestead,-26.46431,115.93848
CURDAWOODA HILL,Mountain / Peak / Hill,-27.02427,116.92424
CURDILYERING,Place Name,-29.61309,118.31633
CURDY CURDY ROCKS,Place Name,-27.98969,116.1367
CURLEW BAY,Bay / Inlet / Cove,-16.40916,123.02432
CURRAGIBBIN HILL,Mountain / Peak / Hill,-30.22518,119.16974
CURRAMBINE,Place Name,-31.7261,115.75052
CURRAN POINT,Cape / Headland / Point,-13.92899,126.80637
CURREGEN FLAT,Place Name,-32.74905,116.68645
CURRIE POINT,Cape / Headland / Point,-32.11946,115.66374
CURRINUP,Place Name,-35.06748,117.62686
CURRONE,Place Name,-29.5256,117.90139
CURTIN,Place Name,-30.91219,122.00544
CUT HILL,Mountain / Peak / Hill,-31.90438,116.7211
CUTHBERT,Place Name,-35.01704,117.78443
CUTHERLING,Place Name,-31.36826,116.91773
CYCAD HILL,Mountain / Peak / Hill,-17.53067,125.0979
CYGNET BAY,Bay / Inlet / Cove,-16.56636,123.03784
CYGNET BAY,Bay / Inlet / Cove,-16.57854,122.98131
DABBALYA GORGE,Gorge,-24.05738,123.17104
DAGGAR HILLS,Mountain / Peak / Hill,-28.1359,117.60251
DAGLISH,Place Name,-31.9508,115.81438
DAIRY CREEK,Homestead,-25.27769,115.86241
DAJOING ROCK,Place Name,-30.44145,118.06788
DAKOTA HILLS,Place Name,-22.56492,126.86416
DALES GORGE,Gorge,-22.50335,118.5936
DALES GORGE LOOKOUT,Place Name,-22.47519,118.55524
DALGARANGA,Homestead,-27.77273,117.015
DALGARANGA HILL,Mountain / Peak / Hill,-27.83511,117.10606
DALGETY DOWNS,Homestead,-25.28122,116.20881
DALGETY ISLAND,Waterbody Island,-25.12102,115.75576
DALGOURING,Place Name,-30.46742,117.96651
DALIUP,Homestead,-33.60205,116.84734
DALLAH,Place Name,-26.22479,116.60579
DALLINUP,Place Name,-33.62504,120.70225
DALWALLINU,Populated Place,-30.28045,116.66015
DALY OUTCAMP,Homestead,-28.25585,119.78016
DALYELLUP,Place Name,-33.40237,115.63608
DALYELLUP BEACH,Beach,-33.39745,115.60381
DALYUP,Place Name,-33.70706,121.58861
DALYUP PARK,Homestead,-33.77556,121.55513
DAMBORING,Place Name,-30.50843,116.71077
DAMPER FLAT,Place Name,-32.12636,126.39141
DAMPIER,Populated Place,-20.66275,116.71256
DAMPIER ARCHIPELAGO,Place Name,-20.54307,116.49905
DAMPIER DOWNS,Homestead,-18.50665,123.45802
DAMPIER DOWNS OUTCAMP,Homestead,-18.37528,123.06656
DAMPIER HILL,Mountain / Peak / Hill,-17.47136,123.03151
DAMPIER POWER STATION,Place Name,-20.64874,116.72515
DAMPIER ROAD,Place Name,-25.55353,113.43044
DANBERRIN HILL,Mountain / Peak / Hill,-31.28605,118.05327
DANCE HEAD,Cape / Headland / Point,-32.17276,115.67607
DANDAGIN ROCK,Place Name,-32.69783,118.4447
DANDARAGA,Homestead,-28.1377,119.30778
DANDARAGAN,Place Name,-30.67065,115.7024
DANGEMANNING ROCK,Place Name,-31.61516,117.83207
DANGIN,Place Name,-32.04084,117.33194
DANIELL,Place Name,-32.58067,121.58534
DANJINNING,Place Name,-30.58863,118.03858
DARCOLE ISLANDS,Place Name,-14.91593,124.70441
D'ARCOLE ISLANDS,Place Name,-15.13101,124.50275
DARCY HILL,Mountain / Peak / Hill,-25.84875,115.5982
DARDADINE,Place Name,-33.23942,116.8479
DARDANUP,Populated Place,-33.3983,115.7518
DARDINA,Place Name,-26.04444,126.77448
DARENING HILLS,Place Name,-31.69787,118.00619
DARKAN,Populated Place,-33.33565,116.74435
DARKAN ROCK,Place Name,-33.33207,116.74265
DARKANUTTUP,Place Name,-33.86646,120.51713
DARKIN,Place Name,-32.05024,116.27697
DARLING HILL,Mountain / Peak / Hill,-33.81255,116.55947
DARLING PEAK,Mountain / Peak / Hill,-21.03879,117.21237
DARLING RANGE,Place Name,-33.20207,115.99369
DARLING RANGE,Place Name,-32.56924,116.17678
DARLING RANGE,Place Name,-31.44808,116.03512
DARLINGTON,Place Name,-31.91276,116.08668
DARLINUP,Place Name,-33.57523,116.68166
DARLNGUNAYA,Place Name,-18.17667,125.59956
DARN HILL,Mountain / Peak / Hill,-28.56083,117.39142
DARRINE,Place Name,-30.85151,119.89908
DARRINKUBBIN HILL,Mountain / Peak / Hill,-30.15446,117.37107
DARTMOOR,Homestead,-27.97716,115.2109
DARTNALL,Place Name,-34.04441,117.74147
DATTENING,Place Name,-32.53883,116.88328
DAVE HILL,Mountain / Peak / Hill,-17.38115,128.02901
DAVENPORT,Place Name,-33.35951,115.6779
DAVIDSON POINT,Cape / Headland / Point,-14.24429,125.59078
DAVIS ISLAND,Waterbody Island,-24.90845,115.27559
DAVYHURST,Place Name,-30.04564,120.6491
DAWESVILLE,Place Name,-32.63286,115.64581
DAWESVILLE CHANNEL,Place Name,-32.60483,115.63868
DAY DAWN,Place Name,-27.46239,117.86486
DAY HILL,Mountain / Peak / Hill,-26.21413,127.19221
DAY ROCK,Place Name,-29.41254,120.02946
DAYLERKING,Place Name,-33.07526,116.61751
DE GREY,Homestead,-20.17617,119.1921
DE LA POER RANGE,Place Name,-27.33774,122.73421
DE LISLE BLUFF,Place Name,-26.20431,127.95617
DE WITT HILL,Mountain / Peak / Hill,-20.90626,117.33695
DEAD CAMEL HILL,Mountain / Peak / Hill,-28.74156,120.45607
DEAD HORSE HILL,Mountain / Peak / Hill,-31.01877,118.43912
DEAD HORSE ROCKS,Place Name,-29.36401,121.27956
DEADMAN FOREST,Place Name,-31.50306,117.01952
DEADMAN HILL,Mountain / Peak / Hill,-23.80186,119.4179
DEAKIN,Place Name,-30.76911,128.96875
DEAN HILL,Mountain / Peak / Hill,-19.14598,125.99858
DEAN HILLS,Place Name,-24.20854,120.77643
DEAN RANGE,Place Name,-25.05424,128.94813
DEANMILL,Place Name,-34.24966,116.08543
DEATHTRAP OUTCAMP,Place Name,-24.65803,115.5317
DEBESA,Homestead,-17.79793,124.07943
DECEPTION BAY,Bay / Inlet / Cove,-15.62909,124.42459
DECEPTION HILL,Mountain / Peak / Hill,-29.84557,119.33444
DECEPTION RANGE,Place Name,-15.87184,128.51754
DECKER FIELD,Place Name,-25.22834,125.1109
DECORATION CAVE,Place Name,-30.29049,128.6463
DEENYA HILL,Mountain / Peak / Hill,-29.92402,122.40201
DEEP BAY,Bay / Inlet / Cove,-14.10701,126.5846
DEEP GORGE,Gorge,-14.55691,126.43185
DEEP POINT,Mountain / Peak / Hill,-18.53915,123.34307
DEEP WATER POINT,Cape / Headland / Point,-16.66519,123.08428
DEEP WELL HILL,Mountain / Peak / Hill,-20.73015,117.9258
DEEPDALE,Homestead,-21.71582,116.18134
DE-ERANNING HILL,Mountain / Peak / Hill,-30.72469,118.42919
DELISSER SANDHILLS,Place Name,-31.69454,128.93674
DELIVERY CAMP PLAIN,Place Name,-20.14991,127.19097
DELLERTON,Place Name,-33.89328,115.70556
DELLYANINE,Place Name,-33.40844,117.09993
DELTA,Place Name,-33.44797,116.28219
DELTA MINE,Place Name,-33.44558,116.28688
DEMPSTER HEAD,Cape / Headland / Point,-33.87739,121.90004
DEN,Place Name,-25.19537,115.7507
DENBARKER,Place Name,-34.76986,117.37544
DENERYL,Homestead,-34.50456,118.3787
DENHAM,Populated Place,-25.9247,113.53642
DENHAM CHANNEL,Place Name,-25.94761,113.31565
DENHAM HUMMOCK,Mountain / Peak / Hill,-25.26105,113.86091
DENHAM SOUND,Bay / Inlet / Cove,-25.72003,113.25372
DENISON PLAINS,Place Name,-19.05415,128.00102
DENISON PLAINS,Place Name,-18.61547,128.40399
DENISON RANGE,Place Name,-19.22129,128.30281
DENMARK,Populated Place,-34.9596,117.35575
DENMORE STUD,Homestead,-34.66733,117.54304
DENNYS CROSSING,Place Name,-30.929,117.39074
DEPOT HILL,Mountain / Peak / Hill,-31.16121,121.44402
DEPOT SPRINGS,Homestead,-27.93236,120.05691
DEPT OF AGRICULTURE EXPERIMENTAL PLOT,Place Name,-16.42249,126.44164
DEPUCH LOOP,Bay / Inlet / Cove,-26.5078,113.58726
DERBY,Populated Place,-17.30933,123.64032
DERDIBIN ROCK,Place Name,-31.33878,117.33434
DESAIX ISLANDS,Place Name,-14.89774,124.88047
DESAULT BAY,Bay / Inlet / Cove,-18.9729,121.55468
DESDEMONA,Place Name,-29.10154,121.36722
DESERT GOLD,Homestead,-26.55867,120.34439
DESMOND,Place Name,-33.62604,120.14371
DESOLATION GLEN,Place Name,-24.81737,127.97925
DESOLATION HILLS,Place Name,-25.84215,121.96589
DEVILS ELBOW,Place Name,-16.85352,127.75457
DEWARS POOL,Place Name,-31.46141,116.43294
DEWTOP HILL,Mountain / Peak / Hill,-29.02132,122.16074
DIADILOA,Place Name,-28.44146,114.81504
DIAMOND HEAD,Cape / Headland / Point,-16.64501,123.50759
DIAMOND TAIL,Place Name,-17.47083,126.51879
DIAMOND TREE,Place Name,-34.36341,116.10462
DIAMOND WELL,Homestead,-26.18493,119.53786
DIANELLA,Place Name,-31.89046,115.87177
DICKSON POINT,Mountain / Peak / Hill,-34.21117,115.78165
DICKSON ROCKS,Place Name,-33.13749,117.73006
DIDE BAY,Bay / Inlet / Cove,-30.92862,115.27838
DIEBIL HILLS,Place Name,-23.60648,122.38049
DIEMALS,Homestead,-29.66948,119.30266
DIGBY HILL,Mountain / Peak / Hill,-25.19142,121.89753
DIGBY POINT,Cape / Headland / Point,-24.88147,113.14011
DIGGER ROCKS,Place Name,-32.72729,119.81513
DIGNAM GORGE,Gorge,-22.50364,118.56924
DILLIE GORGE,Gorge,-16.74636,125.38317
DILLING,Place Name,-32.39324,117.81107
DILLON BAY,Bay / Inlet / Cove,-34.47278,119.31382
DILLON BEACH,Beach,-34.44829,119.30067
DIMOND GORGE,Gorge,-17.65038,126.0263
DINGEMIA HILL,Mountain / Peak / Hill,-30.27682,116.00717
DINGO BEACH,Beach,-35.08965,117.64084
DINGO BLUFF,Mountain / Peak / Hill,-27.9472,122.93168
DINGO BORE BOREFIELD,Place Name,-26.27309,120.64717
DINGO CAVE,Place Name,-31.85448,126.74782
DINGO GAP,Pass,-17.66521,125.23318
DINGO HILL,Mountain / Peak / Hill,-28.53735,122.93117
DINGO KNOB,Mountain / Peak / Hill,-33.07725,116.03425
DINGO POINT,Mountain / Peak / Hill,-28.53099,123.10421
DINGO RANGE,Place Name,-27.27777,121.39892
DINNER HILL,Mountain / Peak / Hill,-30.39192,115.63621
DINNER HILL,Mountain / Peak / Hill,-24.15591,128.18233
DINNINUP,Place Name,-33.81376,116.55014
DINNINUP HILL,Mountain / Peak / Hill,-33.83094,116.57513
DIORITE HILL,Mountain / Peak / Hill,-28.57999,122.68568
DIORITE HILL,Mountain / Peak / Hill,-25.14219,127.15381
DIRALLIE,Place Name,-25.08441,115.86513
DIRK HARTOG,Homestead,-26.00344,113.20027
DISAPPOINTED HILL,Mountain / Peak / Hill,-28.05695,125.03962
DISAPPOINTMENT HILL,Mountain / Peak / Hill,-27.8406,122.94569
DISAPPOINTMENT LOOP,Bay / Inlet / Cove,-26.62729,113.67667
DISAPPOINTMENT REACH,Place Name,-25.72505,114.05519
DISAPPOINTMENT REACH,Place Name,-25.79192,113.93859
DISASTER BAY,Bay / Inlet / Cove,-16.88405,123.16703
DISASTER COVE,Bay / Inlet / Cove,-25.00302,113.12227
DIVER INLET,Bay / Inlet / Cove,-20.99894,116.10361
DIVIDE HILL,Mountain / Peak / Hill,-16.90794,125.72869
DIVIDING RANGE,Place Name,-27.82075,116.01393
DIXON RANGE,Place Name,-24.69281,127.99087
DJADA HILL,Mountain / Peak / Hill,-18.52971,124.86038
DJARADJUNG,Place Name,-16.5604,122.96667
DJARWORRADA,Place Name,-15.69276,124.38236
DJIBBINJ,Place Name,-17.05907,122.31671
DJILIMBARDI,Place Name,-19.05519,124.86113
DJOODOOD,Place Name,-16.66964,122.80016
DJUGARARGYN,Place Name,-16.79615,122.86771
DJUGERARI,Place Name,-18.98914,125.50999
DOCKER GAP,Place Name,-24.70693,128.98961
DOCONING,Place Name,-31.85523,116.31059
DOCTOR HICKS RANGE,Place Name,-28.62894,124.53958
DODGERS HILL,Mountain / Peak / Hill,-28.61763,121.36046
DODNUN,Place Name,-16.43928,126.2123
DOG HILL,Mountain / Peak / Hill,-32.31196,115.85299
DOGGERUP DUNES,Place Name,-34.77402,115.98677
DOGINGUP,Place Name,-33.69847,115.6548
DOGSPIKE HILL,Mountain / Peak / Hill,-17.82486,124.32339
DOMBAKUP,Place Name,-34.58992,116.08115
DOME HILL,Mountain / Peak / Hill,-14.81735,128.09457
DOMEYER HILL,Mountain / Peak / Hill,-25.66179,127.46969
DONALD PLAIN,Place Name,-18.34916,125.62999
DONE HILL,Mountain / Peak / Hill,-17.80245,124.31627
DONGARA,Populated Place,-29.25818,114.93276
DONKEY GAP,Pass,-16.07721,128.99696
DONKINS HILL,Mountain / Peak / Hill,-14.9569,125.50988
DONNININGTON HILL,Mountain / Peak / Hill,-30.72095,118.34371
DONNYBROOK,Populated Place,-33.5713,115.82446
DOODLAKINE,Place Name,-31.60963,117.87416
DOOLDANGIN HILL,Mountain / Peak / Hill,-30.73486,118.44977
DOOLENA GAP,Gorge,-20.92845,119.78869
DOOLENA PEAK,Mountain / Peak / Hill,-20.91822,119.71975
DOOLEY DOWNS,Homestead,-24.1277,117.11477
DOOLGUNNA,Homestead,-25.6881,119.2269
DOOMBUP,Place Name,-33.84015,122.06153
DOONGAN,Homestead,-15.38056,126.31325
DOONGIN PEAK,Mountain / Peak / Hill,-31.60325,117.42868
DOORAWARRAH,Homestead,-24.80906,114.4341
DOORDWOORDOO,Place Name,-24.85784,115.28493
DOOTHAGNUNGANNA HILL,Mountain / Peak / Hill,-27.86034,116.66438
DOOTHAGUNNA,Place Name,-28.5435,118.54516
DOOTHAMINYA HILL,Mountain / Peak / Hill,-28.35514,117.27766
DORA KNOB,Mountain / Peak / Hill,-19.96778,126.85775
DORIS HILL,Mountain / Peak / Hill,-31.88415,116.65863
DORNOCK,Place Name,-32.80133,118.57935
DOROTHY HILLS,Place Name,-28.04875,123.91077
DORRINUP,Place Name,-33.88122,120.57903
DOUBLE BEACH,Beach,-26.48458,113.63381
DOUBLE HAMMOCK,Mountain / Peak / Hill,-14.69448,128.14548
DOUBLE HILL,Mountain / Peak / Hill,-26.31003,122.78047
DOUBLE HILL,Mountain / Peak / Hill,-26.3119,122.78167
DOUBLE HILLS,Place Name,-28.16704,124.52998
DOUBLE ISLAND,Waterbody Island,-24.67107,116.18917
DOUBLE PEAK,Mountain / Peak / Hill,-24.52301,117.21042
DOUBLET HILL,Mountain / Peak / Hill,-22.98549,113.82794
DOUBTFUL BAY,Bay / Inlet / Cove,-16.07857,124.53485
DOUBTFUL BAY,Bay / Inlet / Cove,-16.04585,124.4957
DOUBTFUL BAY,Bay / Inlet / Cove,-15.98437,124.55178
DOUBTFUL ISLANDS BAY,Bay / Inlet / Cove,-34.18542,119.62871
DOUGHBOY HILL,Mountain / Peak / Hill,-17.52832,128.64329
DOUST,Place Name,-33.26533,121.71564
DOVE POINT,Cape / Headland / Point,-20.76632,115.47569
DOVERS HILLS,Place Name,-23.11689,128.66454
DOWAK,Place Name,-32.88745,121.60148
DOWERIN,Populated Place,-31.19367,117.03955
DOWGOOROO,Place Name,-29.44293,118.00049
DOWLING HILLS,Place Name,-23.88189,126.2737
DRAGES,Place Name,-27.49498,115.25317
DRAPER HILL,Mountain / Peak / Hill,-34.10105,118.42171
DRAYSON PEAK,Mountain / Peak / Hill,-15.23916,128.15537
DRILLERS RIDGE,Place Name,-22.31276,118.28556
DRIVERS HILL,Mountain / Peak / Hill,-32.96498,116.11958
DROMEDARIES HILL,Mountain / Peak / Hill,-29.92861,117.87813
DROVERS REST,Place Name,-15.57518,128.69687
DRUMMOND COVE,Populated Place,-28.67049,114.61311
DRY HILL,Mountain / Peak / Hill,-25.86419,126.67339
DRYANDRA,Place Name,-32.78375,116.96884
DRYDEN HILLS,Mountain / Peak / Hill,-32.35524,118.68508
DRYSDALE CROSSING,Place Name,-15.67155,126.40101
DRYSDALE RIVER,Homestead,-15.70877,126.37744
DUBAUT POINT,Cape / Headland / Point,-25.87896,113.76095
DUCHESS RIDGE,Place Name,-18.12429,124.56143
DUCK CREEK,Place Name,-22.51501,116.58286
DUCK HILL,Mountain / Peak / Hill,-29.51455,122.27753
DUDININ,Place Name,-32.86942,117.90446
DUDOOROW,Place Name,-27.96668,116.82677
DUFFER RANGE,Place Name,-18.03909,127.84779
DUGGAN,Place Name,-33.15209,118.14443
DUGONG BAY,Bay / Inlet / Cove,-16.39813,123.87075
DUKES DOME,Mountain / Peak / Hill,-18.63827,125.10295
DUKETON,Place Name,-27.64133,122.27934
DUKIN,Place Name,-30.9377,117.43174
DULBELLING,Place Name,-32.04871,117.25849
DULEBANYUNDY HILL,Mountain / Peak / Hill,-31.53566,118.4717
DUMBERNING,Place Name,-32.98166,117.11277
DUMBLEYUNG,Populated Place,-33.31257,117.73933
DUMBODIL,Place Name,-32.03092,116.96877
DUMMER RANGE,Place Name,-20.23206,125.92886
DUNCAN,Place Name,-32.66126,116.27745
DUNDAKING FLAT,Place Name,-32.046,116.6272
DUNDAS,Place Name,-32.38801,121.77326
DUNEDIN,Homestead,-30.07045,116.86042
DUNGEY TABLE HILL,Mountain / Peak / Hill,-28.18476,123.8393
DUNHAM HILL,Mountain / Peak / Hill,-16.37055,128.22071
DUNHAM RIVER,Homestead,-16.31072,128.24384
DUNKERNUCKING,Place Name,-32.57845,116.91534
DUNLEATH,Homestead,-33.36045,116.79004
DUNN BAY,Bay / Inlet / Cove,-33.61549,115.11819
DUNN ROCKS,Cape / Headland / Point,-33.92908,122.34717
DUNNS,Homestead,-33.8125,122.29447
DUNNS RANGE,Place Name,-25.06514,118.45811
DUNNSVILLE,Place Name,-30.63067,120.87234
DUNSBOROUGH,Populated Place,-33.61854,115.10693
DUNSKY BEACH,Beach,-35.12459,117.63762
DUNSTER CASTLE BAY,Bay / Inlet / Cove,-33.85245,121.09915
DUPLEX HILL,Mountain / Peak / Hill,-30.95137,121.75936
DURACK RANGE,Place Name,-17.19456,127.40998
DURACK RANGE,Place Name,-16.9461,127.49503
DURACK RIVER,Homestead,-15.83597,127.41074
DURANILLIN,Place Name,-33.51411,116.80575
DURANNING ROCK,Place Name,-31.0558,117.80225
DURBA HILLS,Place Name,-23.79561,122.45192
DURDGUDING ROCK,Place Name,-31.44677,118.29496
DURGACUTTIN ROCK,Place Name,-31.43795,118.29856
DURI,Place Name,-31.23126,120.17356
DURKYING,Place Name,-29.44074,118.26038
DUTARNING RANGE,Place Name,-32.54435,117.33117
DWARDA,Place Name,-32.76785,116.68165
DWELLINGUP,Populated Place,-32.71438,116.0622
DYLONGUP,Place Name,-33.83522,116.41484
DYLOTT RANGE,Place Name,-31.84313,116.76344
EAGLE BLUFF,Cape / Headland / Point,-26.09461,113.58115
EAGLE GORGE,Gorge,-27.77072,114.12877
EAGLE HAWK CROSSING GORGE,Gorge,-18.46298,127.12829
EAGLE HILL,Mountain / Peak / Hill,-32.28098,116.21874
EAGLE POINT,Cape / Headland / Point,-28.48399,113.68645
EAGLE POINT,Cape / Headland / Point,-24.8268,113.15902
EAGLE POINT,Cape / Headland / Point,-16.16963,124.39945
EAGLE ROCK,Place Name,-31.07988,118.246
EAGLEHAWK FLATS,Place Name,-30.90539,115.35897
EAGLES NEST,Cape / Headland / Point,-20.86871,115.3078
EAGLESTONE HILL,Mountain / Peak / Hill,-31.0821,118.24369
EARAHEEDY,Homestead,-25.59277,121.58677
EARAHEEDY HILL,Mountain / Peak / Hill,-25.57308,121.48449
EARILIER HILL,Mountain / Peak / Hill,-25.9999,116.05395
EAROO ROCK,Place Name,-29.54849,118.35629
EAST ARTHUR,Place Name,-33.41732,117.02256
EAST BASTION,Mountain / Peak / Hill,-15.44939,128.1623
EAST BROOK,Place Name,-34.39691,116.10442
EAST BROTHERS,Mountain / Peak / Hill,-26.2676,127.3563
EAST BULLSBROOK,Place Name,-31.66112,116.02608
EAST GUILDFORD,Place Name,-31.89604,115.98014
EAST LANDING,Cape / Headland / Point,-26.42328,113.56283
EAST LYONS ISLAND,Waterbody Island,-25.03759,115.16082
EAST MOUNT BARREN,Mountain / Peak / Hill,-33.92377,120.02308
EAST NORTHAM,Place Name,-31.6481,116.67809
EAST PADDOCK HILL,Mountain / Peak / Hill,-23.51955,115.66631
EAST PERTH,Place Name,-31.94153,115.87741
EAST PERTH TERMINAL,Place Name,-31.94013,115.87445
EAST POINT,Cape / Headland / Point,-35.03033,116.74212
EAST ROCK,Cape / Headland / Point,-33.89445,122.89721
EAST ROCKINGHAM,Place Name,-32.2621,115.76034
EAST SAND,Place Name,-26.09021,113.27347
EAST SANDY POINT,Cape / Headland / Point,-16.89444,122.55772
EAST TWIN,Mountain / Peak / Hill,-24.53641,128.26143
EAST WITCHCLIFFE,Place Name,-34.02006,115.11857
EASTER GROUP,Place Name,-28.70718,113.78875
EASTERN BLUFF,Cape / Headland / Point,-25.80622,113.72348
EASTERN HILL,Mountain / Peak / Hill,-20.42926,126.59734
EASTERN ISLANDS,Place Name,-28.67534,113.87103
EASTERN PASSAGE,Place Name,-28.6822,113.84546
EASTERN RIDGE,Place Name,-23.32501,119.79171
EATON,Populated Place,-33.31664,115.70503
EATON SAND HOLE,Place Name,-31.37332,117.00371
EBERLE HILL,Mountain / Peak / Hill,-24.53761,123.85558
ECHO BLUFF,Mountain / Peak / Hill,-21.66688,115.97207
ECHO VALLEY,Place Name,-16.572,125.23249
ECLIPSE HILL,Mountain / Peak / Hill,-33.39824,123.14822
ECLIPSE HILL,Mountain / Peak / Hill,-13.94107,126.28603
ECLIPSE HILL,Mountain / Peak / Hill,-31.39361,115.93146
ECLIPSE ISLANDS,Place Name,-13.9121,126.29455
EDAGGEE,Homestead,-25.35887,114.23058
EDAH,Place Name,-28.29808,117.16613
EDAH,Homestead,-28.27475,117.15036
EDAH HILL,Mountain / Peak / Hill,-28.26412,117.16341
EDAH ROCKS,Place Name,-28.21912,117.22089
EDDIE HILL,Mountain / Peak / Hill,-25.44561,120.13863
EDDINGTON,Homestead,-32.23596,117.65438
EDEL LAND,Place Name,-26.40304,113.37521
EDELINE ISLANDS,Place Name,-16.36065,123.59817
EDGAR RANGE,Place Name,-18.6706,123.28093
EDGEWATER,Place Name,-31.77261,115.77884
EDJUDINA,Homestead,-29.81445,122.35453
EDKINS RANGE,Place Name,-16.21855,125.28803
EDMUND,Homestead,-23.7621,116.11461
EDWARD POINT,Cape / Headland / Point,-35.02967,117.24806
EDWARDS CROSSING,Place Name,-32.08771,116.88567
EDWARDS POINT,Cape / Headland / Point,-33.97737,119.94447
EELYA HILL,Mountain / Peak / Hill,-27.36555,118.16617
EERALA,Homestead,-21.38426,117.10811
EGAN RANGE,Place Name,-18.61002,127.07657
EGINBAH,Place Name,-20.86097,119.78519
EGLINTON,Place Name,-31.58606,115.69438
EGLINTON HILL,Mountain / Peak / Hill,-31.64466,115.69127
EIGHT MILE,Place Name,-18.33254,125.69185
EIGHT MILE HILL,Mountain / Peak / Hill,-31.62017,116.4288
EIGHT MILE ROCK,Place Name,-31.23518,116.96071
EIGHTY MILE BEACH,Beach,-19.66416,120.88185
EIGHTY MILE BEACH CARAVAN PARK,Place Name,-19.75568,120.67024
EILEEN HILL,Mountain / Peak / Hill,-19.99003,125.1632
EJANDING,Place Name,-31.01409,117.11619
EL QUESTRO,Homestead,-16.00797,127.98147
ELABBIN,Place Name,-31.23028,118.14554
ELACHBUTTING HILL,Mountain / Peak / Hill,-30.59219,118.6122
ELBOW POINT,Cape / Headland / Point,-13.94119,126.57196
ELBOW SHOAL,Place Name,-25.0182,113.6258
ELDRIDGE,Place Name,-32.78831,115.89313
ELEPHANT HILL,Mountain / Peak / Hill,-15.04947,128.5058
ELEPHANT POINT,Cape / Headland / Point,-16.55485,122.98524
ELGEE CLIFFS,Place Name,-16.94257,127.45921
ELGIN,Place Name,-33.51364,115.63155
ELIOT RANGE,Place Name,-18.25411,128.09073
ELIZA ROCKS,Mountain / Peak / Hill,-25.88592,127.56397
ELIZABETH AND CATHERINE RANGE,Place Name,-15.84647,125.16123
ELIZABETH HILLS,Mountain / Peak / Hill,-22.79554,127.99393
ELLAVALLA,Homestead,-25.08954,114.38023
ELLEKER,Place Name,-35.00821,117.72221
ELLEN COVE,Bay / Inlet / Cove,-35.02263,117.92273
ELLEN PEAK,Mountain / Peak / Hill,-34.35739,118.33402
ELLENBRAE,Homestead,-15.95765,127.06357
ELLENDALE,Homestead,-17.92789,124.81043
ELLIS RANGE,Place Name,-24.32268,128.40887
ELPHIN,Place Name,-30.83905,116.67064
ELSEY HILLS,Place Name,-19.83557,128.04544
ELTEKON,Homestead,-34.41992,117.53205
ELVIRE CROSSING,Place Name,-18.22628,127.76832
ELVIRE GORGE,Gorge,-18.28519,128.02207
ELVIRE ROCK,Place Name,-29.50192,119.5999
EMANUEL RANGE,Place Name,-18.72263,126.03212
EMANUEL RANGE,Place Name,-18.68676,125.9769
EMBALGUN,Place Name,-16.8007,122.62791
EMERIAU POINT,Cape / Headland / Point,-16.77143,122.57032
EMERY RANGE,Place Name,-23.69442,128.66035
EMU BEND,Place Name,-34.65292,118.03789
EMU CREEK COMMUNITY,Place Name,-15.81653,128.78834
EMU FARM,Homestead,-26.57605,120.35584
EMU FLAT,Place Name,-31.02142,122.03382
EMU HILL,Place Name,-32.10588,118.36668
EMU HILL,Mountain / Peak / Hill,-32.08134,118.29045
EMU HILL,Mountain / Peak / Hill,-30.88311,121.14535
EMU PLAINS,Place Name,-30.8687,121.83548
EMU POINT,Place Name,-34.99781,117.93708
EMU POINT,Cape / Headland / Point,-34.99506,117.95007
EMU RANGE,Place Name,-22.97824,122.18233
EMU ROCK,Place Name,-31.36129,121.52293
EMU ROCKS,Place Name,-30.85295,123.16499
EMUMING ROCK,Place Name,-31.09046,116.94109
ENCOUNTER COVE,Bay / Inlet / Cove,-14.13331,126.19051
ENEABBA,Populated Place,-29.81958,115.2659
ENTRANCE POINT,Cape / Headland / Point,-21.67002,114.97158
ENTRANCE POINT,Cape / Headland / Point,-18.00887,122.20714
ENTRANCE POINT,Cape / Headland / Point,-32.15719,115.66071
EPILEPTIC ROCK,Place Name,-33.03855,117.38765
ERADU,Place Name,-28.71226,115.01964
ERADU HILL,Mountain / Peak / Hill,-28.71024,115.0418
ERAGILGA HILLS,Mountain / Peak / Hill,-30.31383,115.22955
ERAWALLA HILL,Mountain / Peak / Hill,-26.79892,120.27505
ERAWONDOO HILL,Mountain / Peak / Hill,-26.18476,116.94283
ERAYINIA HILL,Mountain / Peak / Hill,-31.01982,122.63668
ERICA RANGES,Place Name,-21.11642,128.50472
ERIKIN,Place Name,-31.9325,117.89634
ERINBEE POINT,Place Name,-19.34207,121.43061
ERLISTOUN,Homestead,-28.3429,122.14407
ERLISTOUN,Place Name,-27.97835,122.33794
ERNEST FAVENC BREAKAWAYS,Place Name,-27.13679,128.07054
ERNEST GILES RANGE,Place Name,-27.09351,123.84936
ERNEST GILES RANGE,Place Name,-26.91161,123.84204
ERONG SPRINGS,Homestead,-25.56469,116.66641
ERRABIDDY,Homestead,-25.4615,117.13497
ERRABIDDY HILLS,Place Name,-26.89834,115.83708
ERROLLS,Place Name,-27.31314,119.03945
ERSKINE,Place Name,-32.5506,115.70254
ERSKINE POINT,Mountain / Peak / Hill,-17.85428,124.35988
ERSKINE RANGE,Place Name,-17.83002,124.34063
ERSKINE TERMINAL,Place Name,-17.84675,124.36821
ESCAPE PASSAGE,Place Name,-16.42833,123.12547
ESPERANCE,Populated Place,-33.86013,121.88259
ESPERANCE BAY,Bay / Inlet / Cove,-33.84848,121.91836
ESPERANCE DOWNS RESEARCH STATION,Place Name,-33.60237,121.78616
